[
 {
   "AirportID": "1.000000000000000",
   "Name": "Goroka Airport",
   "City": "Goroka",
   "Country": "Papua New Guinea",
   "IATA": "GKA",
   "ICAO": "AYGA",
   "Altitude": "1609.953600000000051",
   "Timezone": "10.000000000000000",
   "Tz_databas": "Pacific/Port_Moresby",
   "RoutesNumb": 5,
   "Lat": "-6.081689834660000",
   "Long": "145.391998290999993"
 },
 {
   "AirportID": "2.000000000000000",
   "Name": "Madang Airport",
   "City": "Madang",
   "Country": "Papua New Guinea",
   "IATA": "MAG",
   "ICAO": "AYMD",
   "Altitude": "6.096000000000000",
   "Timezone": "10.000000000000000",
   "Tz_databas": "Pacific/Port_Moresby",
   "RoutesNumb": 8,
   "Lat": "-5.207079887800000",
   "Long": "145.789001465000013"
 },
 {
   "AirportID": "3.000000000000000",
   "Name": "Mount Hagen Kagamuga Airport",
   "City": "Mount Hagen",
   "Country": "Papua New Guinea",
   "IATA": "HGU",
   "ICAO": "AYMH",
   "Altitude": "1642.262400000000071",
   "Timezone": "10.000000000000000",
   "Tz_databas": "Pacific/Port_Moresby",
   "RoutesNumb": 10,
   "Lat": "-5.826789856130000",
   "Long": "144.296005248999990"
 },
 {
   "AirportID": "4.000000000000000",
   "Name": "Nadzab Airport",
   "City": "Nadzab",
   "Country": "Papua New Guinea",
   "IATA": "LAE",
   "ICAO": "AYNZ",
   "Altitude": "72.847200000000001",
   "Timezone": "10.000000000000000",
   "Tz_databas": "Pacific/Port_Moresby",
   "RoutesNumb": 11,
   "Lat": "-6.569802999570000",
   "Long": "146.725977000000000"
 },
 {
   "AirportID": "5.000000000000000",
   "Name": "Port Moresby Jacksons International Airport",
   "City": "Port Moresby",
   "Country": "Papua New Guinea",
   "IATA": "POM",
   "ICAO": "AYPY",
   "Altitude": "44.500799999999998",
   "Timezone": "10.000000000000000",
   "Tz_databas": "Pacific/Port_Moresby",
   "RoutesNumb": 51,
   "Lat": "-9.443380356040000",
   "Long": "147.220001220999990"
 },
 {
   "AirportID": "6.000000000000000",
   "Name": "Wewak International Airport",
   "City": "Wewak",
   "Country": "Papua New Guinea",
   "IATA": "WWK",
   "ICAO": "AYWK",
   "Altitude": "5.791200000000000",
   "Timezone": "10.000000000000000",
   "Tz_databas": "Pacific/Port_Moresby",
   "RoutesNumb": 6,
   "Lat": "-3.583830118540000",
   "Long": "143.669006348000011"
 },
 {
   "AirportID": "7.000000000000000",
   "Name": "Narsarsuaq Airport",
   "City": "Narssarssuaq",
   "Country": "Greenland",
   "IATA": "UAK",
   "ICAO": "BGBW",
   "Altitude": "34.137599999999999",
   "Timezone": "-3.000000000000000",
   "Tz_databas": "America/Godthab",
   "RoutesNumb": 5,
   "Lat": "61.160499572600003",
   "Long": "-45.425998687800003"
 },
 {
   "AirportID": "8.000000000000000",
   "Name": "Godthaab / Nuuk Airport",
   "City": "Godthaab",
   "Country": "Greenland",
   "IATA": "GOH",
   "ICAO": "BGGH",
   "Altitude": "86.258399999999995",
   "Timezone": "-3.000000000000000",
   "Tz_databas": "America/Godthab",
   "RoutesNumb": 8,
   "Lat": "64.190902710100005",
   "Long": "-51.678100585999999"
 },
 {
   "AirportID": "9.000000000000000",
   "Name": "Kangerlussuaq Airport",
   "City": "Sondrestrom",
   "Country": "Greenland",
   "IATA": "SFJ",
   "ICAO": "BGSF",
   "Altitude": "50.292000000000002",
   "Timezone": "-3.000000000000000",
   "Tz_databas": "America/Godthab",
   "RoutesNumb": 7,
   "Lat": "67.012221899400004",
   "Long": "-50.711603164700001"
 },
 {
   "AirportID": "10.000000000000000",
   "Name": "Thule Air Base",
   "City": "Thule",
   "Country": "Greenland",
   "IATA": "THU",
   "ICAO": "BGTL",
   "Altitude": "76.504800000000003",
   "Timezone": "-4.000000000000000",
   "Tz_databas": "America/Thule",
   "RoutesNumb": 1,
   "Lat": "76.531196594299999",
   "Long": "-68.703201293899994"
 },
 {
   "AirportID": "11.000000000000000",
   "Name": "Akureyri Airport",
   "City": "Akureyri",
   "Country": "Iceland",
   "IATA": "AEY",
   "ICAO": "BIAR",
   "Altitude": "1.828800000000000",
   "Timezone": "0.000000000000000",
   "Tz_databas": "Atlantic/Reykjavik",
   "RoutesNumb": 1,
   "Lat": "65.660003662199998",
   "Long": "-18.072700500700002"
 },
 {
   "AirportID": "12.000000000000000",
   "Name": "Egilsstaðir Airport",
   "City": "Egilsstadir",
   "Country": "Iceland",
   "IATA": "EGS",
   "ICAO": "BIEG",
   "Altitude": "23.164800000000000",
   "Timezone": "0.000000000000000",
   "Tz_databas": "Atlantic/Reykjavik",
   "RoutesNumb": 1,
   "Lat": "65.283302307100001",
   "Long": "-14.401399612700001"
 },
 {
   "AirportID": "15.000000000000000",
   "Name": "Ísafjörður Airport",
   "City": "Isafjordur",
   "Country": "Iceland",
   "IATA": "IFJ",
   "ICAO": "BIIS",
   "Altitude": "2.438400000000000",
   "Timezone": "0.000000000000000",
   "Tz_databas": "Atlantic/Reykjavik",
   "RoutesNumb": 1,
   "Lat": "66.058097839200002",
   "Long": "-23.135299682399999"
 },
 {
   "AirportID": "16.000000000000000",
   "Name": "Keflavik International Airport",
   "City": "Keflavik",
   "Country": "Iceland",
   "IATA": "KEF",
   "ICAO": "BIKF",
   "Altitude": "52.120800000000003",
   "Timezone": "0.000000000000000",
   "Tz_databas": "Atlantic/Reykjavik",
   "RoutesNumb": 45,
   "Lat": "63.985000610299998",
   "Long": "-22.605600356800000"
 },
 {
   "AirportID": "18.000000000000000",
   "Name": "Reykjavik Airport",
   "City": "Reykjavik",
   "Country": "Iceland",
   "IATA": "RKV",
   "ICAO": "BIRK",
   "Altitude": "14.630400000000000",
   "Timezone": "0.000000000000000",
   "Tz_databas": "Atlantic/Reykjavik",
   "RoutesNumb": 4,
   "Lat": "64.129997253499994",
   "Long": "-21.940599441300002"
 },
 {
   "AirportID": "21.000000000000000",
   "Name": "Sault Ste Marie Airport",
   "City": "Sault Sainte Marie",
   "Country": "Canada",
   "IATA": "YAM",
   "ICAO": "CYAM",
   "Altitude": "192.024000000000001",
   "Timezone": "-5.000000000000000",
   "Tz_databas": "America/Toronto",
   "RoutesNumb": 4,
   "Lat": "46.485000610100002",
   "Long": "-84.509399413899999"
 },
 {
   "AirportID": "24.000000000000000",
   "Name": "St. Anthony Airport",
   "City": "St. Anthony",
   "Country": "Canada",
   "IATA": "YAY",
   "ICAO": "CYAY",
   "Altitude": "32.918399999999998",
   "Timezone": "-3.500000000000000",
   "Tz_databas": "America/St_Johns",
   "RoutesNumb": 3,
   "Lat": "51.391899109199997",
   "Long": "-56.083099364799999"
 },
 {
   "AirportID": "27.000000000000000",
   "Name": "Baie Comeau Airport",
   "City": "Baie Comeau",
   "Country": "Canada",
   "IATA": "YBC",
   "ICAO": "CYBC",
   "Altitude": "21.640799999999999",
   "Timezone": "-5.000000000000000",
   "Tz_databas": "America/Toronto",
   "RoutesNumb": 6,
   "Lat": "49.132499694600000",
   "Long": "-68.204399109199997"
 },
 {
   "AirportID": "28.000000000000000",
   "Name": "CFB Bagotville",
   "City": "Bagotville",
   "Country": "Canada",
   "IATA": "YBG",
   "ICAO": "CYBG",
   "Altitude": "159.105600000000010",
   "Timezone": "-5.000000000000000",
   "Tz_databas": "America/Toronto",
   "RoutesNumb": 4,
   "Lat": "48.330600738699999",
   "Long": "-70.996398925999998"
 },
 {
   "AirportID": "29.000000000000000",
   "Name": "Baker Lake Airport",
   "City": "Baker Lake",
   "Country": "Canada",
   "IATA": "YBK",
   "ICAO": "CYBK",
   "Altitude": "17.983200000000000",
   "Timezone": "-6.000000000000000",
   "Tz_databas": "America/Winnipeg",
   "RoutesNumb": 6,
   "Lat": "64.298896789599993",
   "Long": "-96.077796936400006"
 },
 {
   "AirportID": "30.000000000000000",
   "Name": "Campbell River Airport",
   "City": "Campbell River",
   "Country": "Canada",
   "IATA": "YBL",
   "ICAO": "CYBL",
   "Altitude": "105.460800000000006",
   "Timezone": "-8.000000000000000",
   "Tz_databas": "America/Vancouver",
   "RoutesNumb": 6,
   "Lat": "49.950801849599998",
   "Long": "-125.271003723000007"
 },
 {
   "AirportID": "31.000000000000000",
   "Name": "Brandon Municipal Airport",
   "City": "Brandon",
   "Country": "Canada",
   "IATA": "YBR",
   "ICAO": "CYBR",
   "Altitude": "409.346400000000017",
   "Timezone": "-6.000000000000000",
   "Tz_databas": "America/Winnipeg",
   "RoutesNumb": 1,
   "Lat": "49.910000000200000",
   "Long": "-99.951897000299994"
 },
 {
   "AirportID": "32.000000000000000",
   "Name": "Cambridge Bay Airport",
   "City": "Cambridge Bay",
   "Country": "Canada",
   "IATA": "YCB",
   "ICAO": "CYCB",
   "Altitude": "27.431999999999999",
   "Timezone": "-7.000000000000000",
   "Tz_databas": "America/Edmonton",
   "RoutesNumb": 6,
   "Lat": "69.108100891000007",
   "Long": "-105.138000488000003"
 },
 {
   "AirportID": "33.000000000000000",
   "Name": "Nanaimo Airport",
   "City": "Nanaimo",
   "Country": "Canada",
   "IATA": "YCD",
   "ICAO": "CYCD",
   "Altitude": "28.041599999999999",
   "Timezone": "-8.000000000000000",
   "Tz_databas": "America/Vancouver",
   "RoutesNumb": 2,
   "Lat": "49.054970224700000",
   "Long": "-123.869862556000001"
 },
 {
   "AirportID": "34.000000000000000",
   "Name": "Castlegar/West Kootenay Regional Airport",
   "City": "Castlegar",
   "Country": "Canada",
   "IATA": "YCG",
   "ICAO": "CYCG",
   "Altitude": "494.995200000000011",
   "Timezone": "-8.000000000000000",
   "Tz_databas": "America/Vancouver",
   "RoutesNumb": 2,
   "Lat": "49.296398162999999",
   "Long": "-117.632003784000005"
 },
 {
   "AirportID": "36.000000000000000",
   "Name": "Charlo Airport",
   "City": "Charlo",
   "Country": "Canada",
   "IATA": "YCL",
   "ICAO": "CYCL",
   "Altitude": "40.233600000000003",
   "Timezone": "-4.000000000000000",
   "Tz_databas": "America/Halifax",
   "RoutesNumb": 2,
   "Lat": "47.990798999900001",
   "Long": "-66.330298999600004"
 },
 {
   "AirportID": "37.000000000000000",
   "Name": "Kugluktuk Airport",
   "City": "Coppermine",
   "Country": "Canada",
   "IATA": "YCO",
   "ICAO": "CYCO",
   "Altitude": "22.555199999999999",
   "Timezone": "-7.000000000000000",
   "Tz_databas": "America/Edmonton",
   "RoutesNumb": 5,
   "Lat": "67.816704000100003",
   "Long": "-115.143996999999999"
 },
 {
   "AirportID": "40.000000000000000",
   "Name": "Clyde River Airport",
   "City": "Clyde River",
   "Country": "Canada",
   "IATA": "YCY",
   "ICAO": "CYCY",
   "Altitude": "26.517600000000002",
   "Timezone": "-5.000000000000000",
   "Tz_databas": "America/Toronto",
   "RoutesNumb": 4,
   "Lat": "70.486099243100000",
   "Long": "-68.516700744399998"
 },
 {
   "AirportID": "41.000000000000000",
   "Name": "Coral Harbour Airport",
   "City": "Coral Harbour",
   "Country": "Canada",
   "IATA": "YZS",
   "ICAO": "CYZS",
   "Altitude": "64.007999999999996",
   "Timezone": "-5.000000000000000",
   "Tz_databas": "America/Coral_Harbour",
   "RoutesNumb": 6,
   "Lat": "64.193298339799995",
   "Long": "-83.359397887800000"
 },
 {
   "AirportID": "45.000000000000000",
   "Name": "Deer Lake Airport",
   "City": "Deer Lake",
   "Country": "Canada",
   "IATA": "YDF",
   "ICAO": "CYDF",
   "Altitude": "21.945599999999999",
   "Timezone": "-3.500000000000000",
   "Tz_databas": "America/St_Johns",
   "RoutesNumb": 7,
   "Lat": "49.210800170900001",
   "Long": "-57.391399383600003"
 },
 {
   "AirportID": "48.000000000000000",
   "Name": "Dawson Creek Airport",
   "City": "Dawson Creek",
   "Country": "Canada",
   "IATA": "YDQ",
   "ICAO": "CYDQ",
   "Altitude": "654.710400000000050",
   "Timezone": "-7.000000000000000",
   "Tz_databas": "America/Dawson_Creek",
   "RoutesNumb": 2,
   "Lat": "55.742298126199998",
   "Long": "-120.182998656999999"
 },
 {
   "AirportID": "49.000000000000000",
   "Name": "Edmonton International Airport",
   "City": "Edmonton",
   "Country": "Canada",
   "IATA": "YEG",
   "ICAO": "CYEG",
   "Altitude": "723.290399999999977",
   "Timezone": "-7.000000000000000",
   "Tz_databas": "America/Edmonton",
   "RoutesNumb": 68,
   "Lat": "53.309700012299999",
   "Long": "-113.580001831000004"
 },
 {
   "AirportID": "50.000000000000000",
   "Name": "Arviat Airport",
   "City": "Eskimo Point",
   "Country": "Canada",
   "IATA": "YEK",
   "ICAO": "CYEK",
   "Altitude": "9.753600000000000",
   "Timezone": "-6.000000000000000",
   "Tz_databas": "America/Winnipeg",
   "RoutesNumb": 7,
   "Lat": "61.094200134300003",
   "Long": "-94.070800781399996"
 },
 {
   "AirportID": "54.000000000000000",
   "Name": "Inuvik Mike Zubko Airport",
   "City": "Inuvik",
   "Country": "Canada",
   "IATA": "YEV",
   "ICAO": "CYEV",
   "Altitude": "68.275199999999998",
   "Timezone": "-7.000000000000000",
   "Tz_databas": "America/Edmonton",
   "RoutesNumb": 8,
   "Lat": "68.304199218799994",
   "Long": "-133.483001709000007"
 },
 {
   "AirportID": "55.000000000000000",
   "Name": "Iqaluit Airport",
   "City": "Iqaluit",
   "Country": "Canada",
   "IATA": "YFB",
   "ICAO": "CYFB",
   "Altitude": "33.527999999999999",
   "Timezone": "-5.000000000000000",
   "Tz_databas": "America/Toronto",
   "RoutesNumb": 18,
   "Lat": "63.756402000100003",
   "Long": "-68.555800999599995"
 },
 {
   "AirportID": "56.000000000000000",
   "Name": "Fredericton Airport",
   "City": "Fredericton",
   "Country": "Canada",
   "IATA": "YFC",
   "ICAO": "CYFC",
   "Altitude": "20.726400000000002",
   "Timezone": "-4.000000000000000",
   "Tz_databas": "America/Halifax",
   "RoutesNumb": 4,
   "Lat": "45.868900299000003",
   "Long": "-66.537200927900003"
 },
 {
   "AirportID": "58.000000000000000",
   "Name": "Flin Flon Airport",
   "City": "Flin Flon",
   "Country": "Canada",
   "IATA": "YFO",
   "ICAO": "CYFO",
   "Altitude": "303.885600000000011",
   "Timezone": "-6.000000000000000",
   "Tz_databas": "America/Winnipeg",
   "RoutesNumb": 4,
   "Lat": "54.678100585700001",
   "Long": "-101.681999206000000"
 },
 {
   "AirportID": "60.000000000000000",
   "Name": "Fort Simpson Airport",
   "City": "Fort Simpson",
   "Country": "Canada",
   "IATA": "YFS",
   "ICAO": "CYFS",
   "Altitude": "169.163999999999987",
   "Timezone": "-7.000000000000000",
   "Tz_databas": "America/Edmonton",
   "RoutesNumb": 2,
   "Lat": "61.760200500600000",
   "Long": "-121.236999510999993"
 },
 {
   "AirportID": "61.000000000000000",
   "Name": "Kingston Norman Rogers Airport",
   "City": "Kingston",
   "Country": "Canada",
   "IATA": "YGK",
   "ICAO": "CYGK",
   "Altitude": "92.963999999999999",
   "Timezone": "-5.000000000000000",
   "Tz_databas": "America/Toronto",
   "RoutesNumb": 1,
   "Lat": "44.225299835100003",
   "Long": "-76.596900940099999"
 },
 {
   "AirportID": "62.000000000000000",
   "Name": "La Grande Rivière Airport",
   "City": "La Grande Riviere",
   "Country": "Canada",
   "IATA": "YGL",
   "ICAO": "CYGL",
   "Altitude": "194.767200000000003",
   "Timezone": "-5.000000000000000",
   "Tz_databas": "America/Toronto",
   "RoutesNumb": 3,
   "Lat": "53.625301361100000",
   "Long": "-77.704200744700003"
 },
 {
   "AirportID": "63.000000000000000",
   "Name": "Gaspé (Michel-Pouliot) Airport",
   "City": "Gaspe",
   "Country": "Canada",
   "IATA": "YGP",
   "ICAO": "CYGP",
   "Altitude": "34.137599999999999",
   "Timezone": "-5.000000000000000",
   "Tz_databas": "America/Toronto",
   "RoutesNumb": 2,
   "Lat": "48.775299072099997",
   "Long": "-64.478599548500000"
 },
 {
   "AirportID": "65.000000000000000",
   "Name": "Îles-de-la-Madeleine Airport",
   "City": "Iles De La Madeleine",
   "Country": "Canada",
   "IATA": "YGR",
   "ICAO": "CYGR",
   "Altitude": "10.667999999999999",
   "Timezone": "-5.000000000000000",
   "Tz_databas": "America/Toronto",
   "RoutesNumb": 3,
   "Lat": "47.424701690699997",
   "Long": "-61.778099059699997"
 },
 {
   "AirportID": "67.000000000000000",
   "Name": "Dryden Regional Airport",
   "City": "Dryden",
   "Country": "Canada",
   "IATA": "YHD",
   "ICAO": "CYHD",
   "Altitude": "412.699200000000019",
   "Timezone": "-6.000000000000000",
   "Tz_databas": "America/Winnipeg",
   "RoutesNumb": 4,
   "Lat": "49.831698999899999",
   "Long": "-92.744202000300007"
 },
 {
   "AirportID": "68.000000000000000",
   "Name": "Ulukhaktok Holman Airport",
   "City": "Holman Island",
   "Country": "Canada",
   "IATA": "YHI",
   "ICAO": "CYHI",
   "Altitude": "35.661600000000000",
   "Timezone": "-7.000000000000000",
   "Tz_databas": "America/Edmonton",
   "RoutesNumb": 3,
   "Lat": "70.762802124000004",
   "Long": "-117.805999756000006"
 },
 {
   "AirportID": "69.000000000000000",
   "Name": "Gjoa Haven Airport",
   "City": "Gjoa Haven",
   "Country": "Canada",
   "IATA": "YHK",
   "ICAO": "CYHK",
   "Altitude": "46.329599999999999",
   "Timezone": "-7.000000000000000",
   "Tz_databas": "America/Edmonton",
   "RoutesNumb": 4,
   "Lat": "68.635597229100000",
   "Long": "-95.849700928100006"
 },
 {
   "AirportID": "70.000000000000000",
   "Name": "John C. Munro Hamilton International Airport",
   "City": "Hamilton",
   "Country": "Canada",
   "IATA": "YHM",
   "ICAO": "CYHM",
   "Altitude": "237.744000000000000",
   "Timezone": "-5.000000000000000",
   "Tz_databas": "America/Toronto",
   "RoutesNumb": 4,
   "Lat": "43.173599243100000",
   "Long": "-79.934997558700005"
 },
 {
   "AirportID": "71.000000000000000",
   "Name": "Montréal / Saint-Hubert Airport",
   "City": "Montreal",
   "Country": "Canada",
   "IATA": "YHU",
   "ICAO": "CYHU",
   "Altitude": "27.431999999999999",
   "Timezone": "-5.000000000000000",
   "Tz_databas": "America/Toronto",
   "RoutesNumb": 4,
   "Lat": "45.517501831300002",
   "Long": "-73.416900634900003"
 },
 {
   "AirportID": "72.000000000000000",
   "Name": "Hay River / Merlyn Carter Airport",
   "City": "Hay River",
   "Country": "Canada",
   "IATA": "YHY",
   "ICAO": "CYHY",
   "Altitude": "164.896800000000013",
   "Timezone": "-7.000000000000000",
   "Tz_databas": "America/Edmonton",
   "RoutesNumb": 3,
   "Lat": "60.839698791499998",
   "Long": "-115.782997131000002"
 },
 {
   "AirportID": "73.000000000000000",
   "Name": "Halifax / Stanfield International Airport",
   "City": "Halifax",
   "Country": "Canada",
   "IATA": "YHZ",
   "ICAO": "CYHZ",
   "Altitude": "145.389600000000002",
   "Timezone": "-4.000000000000000",
   "Tz_databas": "America/Halifax",
   "RoutesNumb": 43,
   "Lat": "44.880798339700000",
   "Long": "-63.508598327400001"
 },
 {
   "AirportID": "75.000000000000000",
   "Name": "Pond Inlet Airport",
   "City": "Pond Inlet",
   "Country": "Canada",
   "IATA": "YIO",
   "ICAO": "CYIO",
   "Altitude": "55.168799999999997",
   "Timezone": "-5.000000000000000",
   "Tz_databas": "America/Toronto",
   "RoutesNumb": 3,
   "Lat": "72.683296203599994",
   "Long": "-77.966697692799997"
 },
 {
   "AirportID": "77.000000000000000",
   "Name": "Stephenville Airport",
   "City": "Stephenville",
   "Country": "Canada",
   "IATA": "YJT",
   "ICAO": "CYJT",
   "Altitude": "25.603200000000001",
   "Timezone": "-3.500000000000000",
   "Tz_databas": "America/St_Johns",
   "RoutesNumb": 1,
   "Lat": "48.544200897300001",
   "Long": "-58.549999236900000"
 },
 {
   "AirportID": "78.000000000000000",
   "Name": "Kamloops Airport",
   "City": "Kamloops",
   "Country": "Canada",
   "IATA": "YKA",
   "ICAO": "CYKA",
   "Altitude": "345.338399999999979",
   "Timezone": "-8.000000000000000",
   "Tz_databas": "America/Vancouver",
   "RoutesNumb": 5,
   "Lat": "50.702201843399997",
   "Long": "-120.444000243999994"
 },
 {
   "AirportID": "79.000000000000000",
   "Name": "Waterloo Airport",
   "City": "Waterloo",
   "Country": "Canada",
   "IATA": "YKF",
   "ICAO": "CYKF",
   "Altitude": "321.564000000000021",
   "Timezone": "-5.000000000000000",
   "Tz_databas": "America/Toronto",
   "RoutesNumb": 3,
   "Lat": "43.460800170799999",
   "Long": "-80.378601074599999"
 },
 {
   "AirportID": "80.000000000000000",
   "Name": "Schefferville Airport",
   "City": "Schefferville",
   "Country": "Canada",
   "IATA": "YKL",
   "ICAO": "CYKL",
   "Altitude": "520.903199999999970",
   "Timezone": "-5.000000000000000",
   "Tz_databas": "America/Toronto",
   "RoutesNumb": 5,
   "Lat": "54.805301666100000",
   "Long": "-66.805297851299997"
 },
 {
   "AirportID": "85.000000000000000",
   "Name": "Lloydminster Airport",
   "City": "Lloydminster",
   "Country": "Canada",
   "IATA": "YLL",
   "ICAO": "CYLL",
   "Altitude": "668.426399999999944",
   "Timezone": "-7.000000000000000",
   "Tz_databas": "America/Edmonton",
   "RoutesNumb": 1,
   "Lat": "53.309200287000003",
   "Long": "-110.072998046999999"
 },
 {
   "AirportID": "87.000000000000000",
   "Name": "Kelowna International Airport",
   "City": "Kelowna",
   "Country": "Canada",
   "IATA": "YLW",
   "ICAO": "CYLW",
   "Altitude": "433.120799999999974",
   "Timezone": "-8.000000000000000",
   "Tz_databas": "America/Vancouver",
   "RoutesNumb": 15,
   "Lat": "49.956100464099997",
   "Long": "-119.377998352000006"
 },
 {
   "AirportID": "90.000000000000000",
   "Name": "Fort McMurray Airport",
   "City": "Fort Mcmurray",
   "Country": "Canada",
   "IATA": "YMM",
   "ICAO": "CYMM",
   "Altitude": "369.112799999999993",
   "Timezone": "-7.000000000000000",
   "Tz_databas": "America/Edmonton",
   "RoutesNumb": 12,
   "Lat": "56.653301239199997",
   "Long": "-111.222000121999997"
 },
 {
   "AirportID": "94.000000000000000",
   "Name": "Natashquan Airport",
   "City": "Natashquan",
   "Country": "Canada",
   "IATA": "YNA",
   "ICAO": "CYNA",
   "Altitude": "11.887200000000000",
   "Timezone": "-5.000000000000000",
   "Tz_databas": "America/Toronto",
   "RoutesNumb": 4,
   "Lat": "50.189998626500000",
   "Long": "-61.789199829099999"
 },
 {
   "AirportID": "99.000000000000000",
   "Name": "High Level Airport",
   "City": "High Level",
   "Country": "Canada",
   "IATA": "YOJ",
   "ICAO": "CYOJ",
   "Altitude": "338.327999999999975",
   "Timezone": "-7.000000000000000",
   "Tz_databas": "America/Edmonton",
   "RoutesNumb": 2,
   "Lat": "58.621398925800001",
   "Long": "-117.165000914999993"
 },
 {
   "AirportID": "100.000000000000000",
   "Name": "Ottawa Macdonald-Cartier International Airport",
   "City": "Ottawa",
   "Country": "Canada",
   "IATA": "YOW",
   "ICAO": "CYOW",
   "Altitude": "113.995199999999997",
   "Timezone": "-5.000000000000000",
   "Tz_databas": "America/Toronto",
   "RoutesNumb": 45,
   "Lat": "45.322498321600001",
   "Long": "-75.669197082899998"
 },
 {
   "AirportID": "105.000000000000000",
   "Name": "Pickle Lake Airport",
   "City": "Pickle Lake",
   "Country": "Canada",
   "IATA": "YPL",
   "ICAO": "CYPL",
   "Altitude": "386.181600000000003",
   "Timezone": "-5.000000000000000",
   "Tz_databas": "America/Coral_Harbour",
   "RoutesNumb": 1,
   "Lat": "51.446399688500001",
   "Long": "-90.214202880700000"
 },
 {
   "AirportID": "106.000000000000000",
   "Name": "Port Menier Airport",
   "City": "Port Menier",
   "Country": "Canada",
   "IATA": "YPN",
   "ICAO": "CYPN",
   "Altitude": "50.901600000000002",
   "Timezone": "-5.000000000000000",
   "Tz_databas": "America/Toronto",
   "RoutesNumb": 2,
   "Lat": "49.836399078299998",
   "Long": "-64.288597107300006"
 },
 {
   "AirportID": "108.000000000000000",
   "Name": "Prince Rupert Airport",
   "City": "Prince Pupert",
   "Country": "Canada",
   "IATA": "YPR",
   "ICAO": "CYPR",
   "Altitude": "35.356800000000000",
   "Timezone": "-8.000000000000000",
   "Tz_databas": "America/Vancouver",
   "RoutesNumb": 2,
   "Lat": "54.286098480000000",
   "Long": "-130.445007323999988"
 },
 {
   "AirportID": "109.000000000000000",
   "Name": "Fort Chipewyan Airport",
   "City": "Fort Chipewyan",
   "Country": "Canada",
   "IATA": "YPY",
   "ICAO": "CYPY",
   "Altitude": "231.952799999999996",
   "Timezone": "-7.000000000000000",
   "Tz_databas": "America/Edmonton",
   "RoutesNumb": 2,
   "Lat": "58.767200470100001",
   "Long": "-111.116996764999996"
 },
 {
   "AirportID": "111.000000000000000",
   "Name": "Quebec Jean Lesage International Airport",
   "City": "Quebec",
   "Country": "Canada",
   "IATA": "YQB",
   "ICAO": "CYQB",
   "Altitude": "74.371200000000002",
   "Timezone": "-5.000000000000000",
   "Tz_databas": "America/Toronto",
   "RoutesNumb": 28,
   "Lat": "46.791099999799997",
   "Long": "-71.393302999900001"
 },
 {
   "AirportID": "112.000000000000000",
   "Name": "Red Deer Regional Airport",
   "City": "Red Deer Industrial",
   "Country": "Canada",
   "IATA": "YQF",
   "ICAO": "CYQF",
   "Altitude": "904.646399999999971",
   "Timezone": "-7.000000000000000",
   "Tz_databas": "America/Edmonton",
   "RoutesNumb": 3,
   "Lat": "52.182201385699997",
   "Long": "-113.893997193000004"
 },
 {
   "AirportID": "113.000000000000000",
   "Name": "Windsor Airport",
   "City": "Windsor",
   "Country": "Canada",
   "IATA": "YQG",
   "ICAO": "CYQG",
   "Altitude": "189.585599999999999",
   "Timezone": "-5.000000000000000",
   "Tz_databas": "America/Toronto",
   "RoutesNumb": 3,
   "Lat": "42.275600433299999",
   "Long": "-82.955596923700000"
 },
 {
   "AirportID": "115.000000000000000",
   "Name": "Kenora Airport",
   "City": "Kenora",
   "Country": "Canada",
   "IATA": "YQK",
   "ICAO": "CYQK",
   "Altitude": "405.993600000000015",
   "Timezone": "-6.000000000000000",
   "Tz_databas": "America/Winnipeg",
   "RoutesNumb": 3,
   "Lat": "49.788299560500000",
   "Long": "-94.363098144299997"
 },
 {
   "AirportID": "116.000000000000000",
   "Name": "Lethbridge County Airport",
   "City": "Lethbridge",
   "Country": "Canada",
   "IATA": "YQL",
   "ICAO": "CYQL",
   "Altitude": "929.030399999999986",
   "Timezone": "-7.000000000000000",
   "Tz_databas": "America/Edmonton",
   "RoutesNumb": 1,
   "Lat": "49.630298614499999",
   "Long": "-112.800003051999994"
 },
 {
   "AirportID": "117.000000000000000",
   "Name": "Greater Moncton International Airport",
   "City": "Moncton",
   "Country": "Canada",
   "IATA": "YQM",
   "ICAO": "CYQM",
   "Altitude": "70.713600000000000",
   "Timezone": "-4.000000000000000",
   "Tz_databas": "America/Halifax",
   "RoutesNumb": 10,
   "Lat": "46.112201690799999",
   "Long": "-64.678596496400004"
 },
 {
   "AirportID": "119.000000000000000",
   "Name": "Comox Airport",
   "City": "Comox",
   "Country": "Canada",
   "IATA": "YQQ",
   "ICAO": "CYQQ",
   "Altitude": "25.603200000000001",
   "Timezone": "-8.000000000000000",
   "Tz_databas": "America/Vancouver",
   "RoutesNumb": 7,
   "Lat": "49.710800170799999",
   "Long": "-124.887001037999994"
 },
 {
   "AirportID": "120.000000000000000",
   "Name": "Regina International Airport",
   "City": "Regina",
   "Country": "Canada",
   "IATA": "YQR",
   "ICAO": "CYQR",
   "Altitude": "577.291200000000003",
   "Timezone": "-6.000000000000000",
   "Tz_databas": "America/Regina",
   "RoutesNumb": 16,
   "Lat": "50.431900024299999",
   "Long": "-104.666000366000006"
 },
 {
   "AirportID": "121.000000000000000",
   "Name": "Thunder Bay Airport",
   "City": "Thunder Bay",
   "Country": "Canada",
   "IATA": "YQT",
   "ICAO": "CYQT",
   "Altitude": "199.034400000000005",
   "Timezone": "-5.000000000000000",
   "Tz_databas": "America/Toronto",
   "RoutesNumb": 13,
   "Lat": "48.371898651099997",
   "Long": "-89.323898314999994"
 },
 {
   "AirportID": "122.000000000000000",
   "Name": "Grande Prairie Airport",
   "City": "Grande Prairie",
   "Country": "Canada",
   "IATA": "YQU",
   "ICAO": "CYQU",
   "Altitude": "669.035999999999945",
   "Timezone": "-7.000000000000000",
   "Tz_databas": "America/Edmonton",
   "RoutesNumb": 4,
   "Lat": "55.179698944300000",
   "Long": "-118.885002135999997"
 },
 {
   "AirportID": "125.000000000000000",
   "Name": "Gander International Airport",
   "City": "Gander",
   "Country": "Canada",
   "IATA": "YQX",
   "ICAO": "CYQX",
   "Altitude": "151.180800000000005",
   "Timezone": "-3.500000000000000",
   "Tz_databas": "America/St_Johns",
   "RoutesNumb": 3,
   "Lat": "48.936901092600003",
   "Long": "-54.568099975199999"
 },
 {
   "AirportID": "126.000000000000000",
   "Name": "Sydney / J.A. Douglas McCurdy Airport",
   "City": "Sydney",
   "Country": "Canada",
   "IATA": "YQY",
   "ICAO": "CYQY",
   "Altitude": "61.874400000000001",
   "Timezone": "-4.000000000000000",
   "Tz_databas": "America/Halifax",
   "RoutesNumb": 2,
   "Lat": "46.161400000000000",
   "Long": "-60.047797999799997"
 },
 {
   "AirportID": "127.000000000000000",
   "Name": "Quesnel Airport",
   "City": "Quesnel",
   "Country": "Canada",
   "IATA": "YQZ",
   "ICAO": "CYQZ",
   "Altitude": "545.287199999999984",
   "Timezone": "-8.000000000000000",
   "Tz_databas": "America/Vancouver",
   "RoutesNumb": 4,
   "Lat": "53.026100158500000",
   "Long": "-122.510002135999997"
 },
 {
   "AirportID": "128.000000000000000",
   "Name": "Resolute Bay Airport",
   "City": "Resolute",
   "Country": "Canada",
   "IATA": "YRB",
   "ICAO": "CYRB",
   "Altitude": "65.531999999999996",
   "Timezone": "-6.000000000000000",
   "Tz_databas": "America/Winnipeg",
   "RoutesNumb": 2,
   "Lat": "74.716903686600006",
   "Long": "-94.969398498499999"
 },
 {
   "AirportID": "132.000000000000000",
   "Name": "Rankin Inlet Airport",
   "City": "Rankin Inlet",
   "Country": "Canada",
   "IATA": "YRT",
   "ICAO": "CYRT",
   "Altitude": "28.651199999999999",
   "Timezone": "-6.000000000000000",
   "Tz_databas": "America/Winnipeg",
   "RoutesNumb": 25,
   "Lat": "62.811401367099997",
   "Long": "-92.115798950599995"
 },
 {
   "AirportID": "133.000000000000000",
   "Name": "Sudbury Airport",
   "City": "Sudbury",
   "Country": "Canada",
   "IATA": "YSB",
   "ICAO": "CYSB",
   "Altitude": "347.776799999999980",
   "Timezone": "-5.000000000000000",
   "Tz_databas": "America/Toronto",
   "RoutesNumb": 6,
   "Lat": "46.625000000199996",
   "Long": "-80.798896789799997"
 },
 {
   "AirportID": "135.000000000000000",
   "Name": "Saint John Airport",
   "City": "St. John",
   "Country": "Canada",
   "IATA": "YSJ",
   "ICAO": "CYSJ",
   "Altitude": "108.813599999999994",
   "Timezone": "-4.000000000000000",
   "Tz_databas": "America/Halifax",
   "RoutesNumb": 3,
   "Lat": "45.316101074199999",
   "Long": "-65.890296935699993"
 },
 {
   "AirportID": "136.000000000000000",
   "Name": "Fort Smith Airport",
   "City": "Fort Smith",
   "Country": "Canada",
   "IATA": "YSM",
   "ICAO": "CYSM",
   "Altitude": "204.520800000000008",
   "Timezone": "-7.000000000000000",
   "Tz_databas": "America/Edmonton",
   "RoutesNumb": 4,
   "Lat": "60.020301818999997",
   "Long": "-111.961997986000000"
 },
 {
   "AirportID": "139.000000000000000",
   "Name": "Sachs Harbour (David Nasogaluak Jr. Saaryuaq) Airport",
   "City": "Sachs Harbour",
   "Country": "Canada",
   "IATA": "YSY",
   "ICAO": "CYSY",
   "Altitude": "85.953599999999994",
   "Timezone": "-7.000000000000000",
   "Tz_databas": "America/Edmonton",
   "RoutesNumb": 2,
   "Lat": "71.993896484499999",
   "Long": "-125.242996215999995"
 },
 {
   "AirportID": "140.000000000000000",
   "Name": "Cape Dorset Airport",
   "City": "Cape Dorset",
   "Country": "Canada",
   "IATA": "YTE",
   "ICAO": "CYTE",
   "Altitude": "49.987200000000001",
   "Timezone": "-5.000000000000000",
   "Tz_databas": "America/Toronto",
   "RoutesNumb": 3,
   "Lat": "64.230003356899999",
   "Long": "-76.526702881000006"
 },
 {
   "AirportID": "141.000000000000000",
   "Name": "Thompson Airport",
   "City": "Thompson",
   "Country": "Canada",
   "IATA": "YTH",
   "ICAO": "CYTH",
   "Altitude": "222.199199999999990",
   "Timezone": "-6.000000000000000",
   "Tz_databas": "America/Winnipeg",
   "RoutesNumb": 6,
   "Lat": "55.801101684499997",
   "Long": "-97.864196776900002"
 },
 {
   "AirportID": "143.000000000000000",
   "Name": "Timmins/Victor M. Power",
   "City": "Timmins",
   "Country": "Canada",
   "IATA": "YTS",
   "ICAO": "CYTS",
   "Altitude": "294.741600000000005",
   "Timezone": "-5.000000000000000",
   "Tz_databas": "America/Toronto",
   "RoutesNumb": 4,
   "Lat": "48.569698333500000",
   "Long": "-81.376701355199998"
 },
 {
   "AirportID": "144.000000000000000",
   "Name": "Billy Bishop Toronto City Centre Airport",
   "City": "Toronto",
   "Country": "Canada",
   "IATA": "YTZ",
   "ICAO": "CYTZ",
   "Altitude": "76.809600000000003",
   "Timezone": "-5.000000000000000",
   "Tz_databas": "America/Toronto",
   "RoutesNumb": 14,
   "Lat": "43.627499000100002",
   "Long": "-79.396202000399995"
 },
 {
   "AirportID": "145.000000000000000",
   "Name": "Tuktoyaktuk Airport",
   "City": "Tuktoyaktuk",
   "Country": "Canada",
   "IATA": "YUB",
   "ICAO": "CYUB",
   "Altitude": "4.572000000000000",
   "Timezone": "-7.000000000000000",
   "Tz_databas": "America/Edmonton",
   "RoutesNumb": 1,
   "Lat": "69.433296203599994",
   "Long": "-133.026000976999995"
 },
 {
   "AirportID": "146.000000000000000",
   "Name": "Montreal / Pierre Elliott Trudeau International Airport",
   "City": "Montreal",
   "Country": "Canada",
   "IATA": "YUL",
   "ICAO": "CYUL",
   "Altitude": "35.966400000000000",
   "Timezone": "-5.000000000000000",
   "Tz_databas": "America/Toronto",
   "RoutesNumb": 183,
   "Lat": "45.470600127899999",
   "Long": "-73.740798949999999"
 },
 {
   "AirportID": "147.000000000000000",
   "Name": "Repulse Bay Airport",
   "City": "Repulse Bay",
   "Country": "Canada",
   "IATA": "YUT",
   "ICAO": "CYUT",
   "Altitude": "24.384000000000000",
   "Timezone": "-6.000000000000000",
   "Tz_databas": "America/Winnipeg",
   "RoutesNumb": 3,
   "Lat": "66.521400451700003",
   "Long": "-86.224700927900003"
 },
 {
   "AirportID": "148.000000000000000",
   "Name": "Hall Beach Airport",
   "City": "Hall Beach",
   "Country": "Canada",
   "IATA": "YUX",
   "ICAO": "CYUX",
   "Altitude": "9.144000000000000",
   "Timezone": "-5.000000000000000",
   "Tz_databas": "America/Toronto",
   "RoutesNumb": 4,
   "Lat": "68.776100158800006",
   "Long": "-81.242500000199996"
 },
 {
   "AirportID": "149.000000000000000",
   "Name": "Rouyn Noranda Airport",
   "City": "Rouyn",
   "Country": "Canada",
   "IATA": "YUY",
   "ICAO": "CYUY",
   "Altitude": "301.142400000000009",
   "Timezone": "-5.000000000000000",
   "Tz_databas": "America/Toronto",
   "RoutesNumb": 5,
   "Lat": "48.206100463600002",
   "Long": "-78.835601806699998"
 },
 {
   "AirportID": "152.000000000000000",
   "Name": "Qikiqtarjuaq Airport",
   "City": "Broughton Island",
   "Country": "Canada",
   "IATA": "YVM",
   "ICAO": "CYVM",
   "Altitude": "6.400800000000000",
   "Timezone": "-5.000000000000000",
   "Tz_databas": "America/Toronto",
   "RoutesNumb": 2,
   "Lat": "67.545799255399999",
   "Long": "-64.031402588199995"
 },
 {
   "AirportID": "153.000000000000000",
   "Name": "Val-d'Or Airport",
   "City": "Val D'or",
   "Country": "Canada",
   "IATA": "YVO",
   "ICAO": "CYVO",
   "Altitude": "337.413599999999974",
   "Timezone": "-5.000000000000000",
   "Tz_databas": "America/Toronto",
   "RoutesNumb": 4,
   "Lat": "48.053298950399999",
   "Long": "-77.782798766799999"
 },
 {
   "AirportID": "154.000000000000000",
   "Name": "Kuujjuaq Airport",
   "City": "Quujjuaq",
   "Country": "Canada",
   "IATA": "YVP",
   "ICAO": "CYVP",
   "Altitude": "39.319200000000002",
   "Timezone": "-5.000000000000000",
   "Tz_databas": "America/Toronto",
   "RoutesNumb": 10,
   "Lat": "58.096099853399998",
   "Long": "-68.426902770699996"
 },
 {
   "AirportID": "155.000000000000000",
   "Name": "Norman Wells Airport",
   "City": "Norman Wells",
   "Country": "Canada",
   "IATA": "YVQ",
   "ICAO": "CYVQ",
   "Altitude": "72.542400000000001",
   "Timezone": "-7.000000000000000",
   "Tz_databas": "America/Edmonton",
   "RoutesNumb": 6,
   "Lat": "65.281600952000005",
   "Long": "-126.797996521000002"
 },
 {
   "AirportID": "156.000000000000000",
   "Name": "Vancouver International Airport",
   "City": "Vancouver",
   "Country": "Canada",
   "IATA": "YVR",
   "ICAO": "CYVR",
   "Altitude": "4.267200000000000",
   "Timezone": "-8.000000000000000",
   "Tz_databas": "America/Vancouver",
   "RoutesNumb": 158,
   "Lat": "49.193901061799998",
   "Long": "-123.183998107999997"
 },
 {
   "AirportID": "160.000000000000000",
   "Name": "Winnipeg / James Armstrong Richardson International Airport",
   "City": "Winnipeg",
   "Country": "Canada",
   "IATA": "YWG",
   "ICAO": "CYWG",
   "Altitude": "238.658400000000000",
   "Timezone": "-6.000000000000000",
   "Tz_databas": "America/Winnipeg",
   "RoutesNumb": 41,
   "Lat": "49.909999847500004",
   "Long": "-97.239898681400007"
 },
 {
   "AirportID": "161.000000000000000",
   "Name": "Wabush Airport",
   "City": "Wabush",
   "Country": "Canada",
   "IATA": "YWK",
   "ICAO": "CYWK",
   "Altitude": "551.078399999999988",
   "Timezone": "-4.000000000000000",
   "Tz_databas": "America/Halifax",
   "RoutesNumb": 16,
   "Lat": "52.921901703200000",
   "Long": "-66.864402771300007"
 },
 {
   "AirportID": "162.000000000000000",
   "Name": "Williams Lake Airport",
   "City": "Williams Lake",
   "Country": "Canada",
   "IATA": "YWL",
   "ICAO": "CYWL",
   "Altitude": "940.307999999999993",
   "Timezone": "-8.000000000000000",
   "Tz_databas": "America/Vancouver",
   "RoutesNumb": 5,
   "Lat": "52.183101654100000",
   "Long": "-122.054000853999995"
 },
 {
   "AirportID": "164.000000000000000",
   "Name": "Cranbrook/Canadian Rockies International Airport",
   "City": "Cranbrook",
   "Country": "Canada",
   "IATA": "YXC",
   "ICAO": "CYXC",
   "Altitude": "939.393599999999992",
   "Timezone": "-7.000000000000000",
   "Tz_databas": "America/Edmonton",
   "RoutesNumb": 4,
   "Lat": "49.610801696800003",
   "Long": "-115.781997680000003"
 },
 {
   "AirportID": "166.000000000000000",
   "Name": "Saskatoon John G. Diefenbaker International Airport",
   "City": "Saskatoon",
   "Country": "Canada",
   "IATA": "YXE",
   "ICAO": "CYXE",
   "Altitude": "503.834400000000016",
   "Timezone": "-6.000000000000000",
   "Tz_databas": "America/Regina",
   "RoutesNumb": 15,
   "Lat": "52.170799255299997",
   "Long": "-106.699996948000006"
 },
 {
   "AirportID": "167.000000000000000",
   "Name": "Medicine Hat Airport",
   "City": "Medicine Hat",
   "Country": "Canada",
   "IATA": "YXH",
   "ICAO": "CYXH",
   "Altitude": "716.889599999999973",
   "Timezone": "-7.000000000000000",
   "Tz_databas": "America/Edmonton",
   "RoutesNumb": 1,
   "Lat": "50.018901825199997",
   "Long": "-110.721000672000002"
 },
 {
   "AirportID": "168.000000000000000",
   "Name": "Fort St John Airport",
   "City": "Fort Saint John",
   "Country": "Canada",
   "IATA": "YXJ",
   "ICAO": "CYXJ",
   "Altitude": "694.943999999999960",
   "Timezone": "-7.000000000000000",
   "Tz_databas": "America/Dawson_Creek",
   "RoutesNumb": 6,
   "Lat": "56.238098144699997",
   "Long": "-120.739997864000003"
 },
 {
   "AirportID": "169.000000000000000",
   "Name": "Sioux Lookout Airport",
   "City": "Sioux Lookout",
   "Country": "Canada",
   "IATA": "YXL",
   "ICAO": "CYXL",
   "Altitude": "383.438400000000001",
   "Timezone": "-6.000000000000000",
   "Tz_databas": "America/Winnipeg",
   "RoutesNumb": 18,
   "Lat": "50.113899230900003",
   "Long": "-91.905296325899997"
 },
 {
   "AirportID": "170.000000000000000",
   "Name": "Pangnirtung Airport",
   "City": "Pangnirtung",
   "Country": "Canada",
   "IATA": "YXP",
   "ICAO": "CYXP",
   "Altitude": "22.859999999999999",
   "Timezone": "-5.000000000000000",
   "Tz_databas": "America/Toronto",
   "RoutesNumb": 4,
   "Lat": "66.144996643200002",
   "Long": "-65.713600159099997"
 },
 {
   "AirportID": "172.000000000000000",
   "Name": "Prince George Airport",
   "City": "Prince George",
   "Country": "Canada",
   "IATA": "YXS",
   "ICAO": "CYXS",
   "Altitude": "690.981599999999958",
   "Timezone": "-8.000000000000000",
   "Tz_databas": "America/Vancouver",
   "RoutesNumb": 10,
   "Lat": "53.889400481999999",
   "Long": "-122.679000853999995"
 },
 {
   "AirportID": "173.000000000000000",
   "Name": "Northwest Regional Airport Terrace-Kitimat",
   "City": "Terrace",
   "Country": "Canada",
   "IATA": "YXT",
   "ICAO": "CYXT",
   "Altitude": "217.322399999999988",
   "Timezone": "-8.000000000000000",
   "Tz_databas": "America/Vancouver",
   "RoutesNumb": 5,
   "Lat": "54.468497999900002",
   "Long": "-128.576008999999999"
 },
 {
   "AirportID": "174.000000000000000",
   "Name": "London Airport",
   "City": "London",
   "Country": "Canada",
   "IATA": "YXU",
   "ICAO": "CYXU",
   "Altitude": "277.977599999999995",
   "Timezone": "-5.000000000000000",
   "Tz_databas": "America/Toronto",
   "RoutesNumb": 6,
   "Lat": "43.035598999900003",
   "Long": "-81.153900000099995"
 },
 {
   "AirportID": "175.000000000000000",
   "Name": "Abbotsford Airport",
   "City": "Abbotsford",
   "Country": "Canada",
   "IATA": "YXX",
   "ICAO": "CYXX",
   "Altitude": "59.436000000000000",
   "Timezone": "-8.000000000000000",
   "Tz_databas": "America/Vancouver",
   "RoutesNumb": 2,
   "Lat": "49.025299072300001",
   "Long": "-122.361000060999999"
 },
 {
   "AirportID": "176.000000000000000",
   "Name": "Whitehorse / Erik Nielsen International Airport",
   "City": "Whitehorse",
   "Country": "Canada",
   "IATA": "YXY",
   "ICAO": "CYXY",
   "Altitude": "706.221599999999967",
   "Timezone": "-8.000000000000000",
   "Tz_databas": "America/Vancouver",
   "RoutesNumb": 5,
   "Lat": "60.709598541399998",
   "Long": "-135.067001342999987"
 },
 {
   "AirportID": "177.000000000000000",
   "Name": "North Bay Jack Garland Airport",
   "City": "North Bay",
   "Country": "Canada",
   "IATA": "YYB",
   "ICAO": "CYYB",
   "Altitude": "370.331999999999994",
   "Timezone": "-5.000000000000000",
   "Tz_databas": "America/Toronto",
   "RoutesNumb": 2,
   "Lat": "46.363602000100002",
   "Long": "-79.422797999699995"
 },
 {
   "AirportID": "178.000000000000000",
   "Name": "Calgary International Airport",
   "City": "Calgary",
   "Country": "Canada",
   "IATA": "YYC",
   "ICAO": "CYYC",
   "Altitude": "1084.173600000000079",
   "Timezone": "-7.000000000000000",
   "Tz_databas": "America/Edmonton",
   "RoutesNumb": 115,
   "Lat": "51.113899230800001",
   "Long": "-114.019996642999999"
 },
 {
   "AirportID": "179.000000000000000",
   "Name": "Smithers Airport",
   "City": "Smithers",
   "Country": "Canada",
   "IATA": "YYD",
   "ICAO": "CYYD",
   "Altitude": "521.817599999999970",
   "Timezone": "-8.000000000000000",
   "Tz_databas": "America/Vancouver",
   "RoutesNumb": 4,
   "Lat": "54.824699401600000",
   "Long": "-127.182998656999999"
 },
 {
   "AirportID": "180.000000000000000",
   "Name": "Fort Nelson Airport",
   "City": "Fort Nelson",
   "Country": "Canada",
   "IATA": "YYE",
   "ICAO": "CYYE",
   "Altitude": "381.914400000000001",
   "Timezone": "-8.000000000000000",
   "Tz_databas": "America/Vancouver",
   "RoutesNumb": 3,
   "Lat": "58.836399078600003",
   "Long": "-122.597000121999997"
 },
 {
   "AirportID": "181.000000000000000",
   "Name": "Penticton Airport",
   "City": "Penticton",
   "Country": "Canada",
   "IATA": "YYF",
   "ICAO": "CYYF",
   "Altitude": "344.119199999999978",
   "Timezone": "-8.000000000000000",
   "Tz_databas": "America/Vancouver",
   "RoutesNumb": 1,
   "Lat": "49.463100433400001",
   "Long": "-119.601997376000000"
 },
 {
   "AirportID": "182.000000000000000",
   "Name": "Charlottetown Airport",
   "City": "Charlottetown",
   "Country": "Canada",
   "IATA": "YYG",
   "ICAO": "CYYG",
   "Altitude": "48.768000000000001",
   "Timezone": "-4.000000000000000",
   "Tz_databas": "America/Halifax",
   "RoutesNumb": 4,
   "Lat": "46.290000915199997",
   "Long": "-63.121101379700001"
 },
 {
   "AirportID": "183.000000000000000",
   "Name": "Taloyoak Airport",
   "City": "Spence Bay",
   "Country": "Canada",
   "IATA": "YYH",
   "ICAO": "CYYH",
   "Altitude": "28.041599999999999",
   "Timezone": "-7.000000000000000",
   "Tz_databas": "America/Edmonton",
   "RoutesNumb": 4,
   "Lat": "69.546699523800001",
   "Long": "-93.576698302899999"
 },
 {
   "AirportID": "184.000000000000000",
   "Name": "Victoria International Airport",
   "City": "Victoria",
   "Country": "Canada",
   "IATA": "YYJ",
   "ICAO": "CYYJ",
   "Altitude": "19.202400000000001",
   "Timezone": "-8.000000000000000",
   "Tz_databas": "America/Vancouver",
   "RoutesNumb": 13,
   "Lat": "48.646900177100001",
   "Long": "-123.426002502000003"
 },
 {
   "AirportID": "187.000000000000000",
   "Name": "Churchill Airport",
   "City": "Churchill",
   "Country": "Canada",
   "IATA": "YYQ",
   "ICAO": "CYYQ",
   "Altitude": "28.651199999999999",
   "Timezone": "-6.000000000000000",
   "Tz_databas": "America/Winnipeg",
   "RoutesNumb": 8,
   "Lat": "58.739200592000003",
   "Long": "-94.065002441000004"
 },
 {
   "AirportID": "188.000000000000000",
   "Name": "Goose Bay Airport",
   "City": "Goose Bay",
   "Country": "Canada",
   "IATA": "YYR",
   "ICAO": "CYYR",
   "Altitude": "48.768000000000001",
   "Timezone": "-4.000000000000000",
   "Tz_databas": "America/Halifax",
   "RoutesNumb": 15,
   "Lat": "53.319198608500002",
   "Long": "-60.425800323600001"
 },
 {
   "AirportID": "189.000000000000000",
   "Name": "St. John's International Airport",
   "City": "St. John's",
   "Country": "Canada",
   "IATA": "YYT",
   "ICAO": "CYYT",
   "Altitude": "140.512799999999999",
   "Timezone": "-3.500000000000000",
   "Tz_databas": "America/St_Johns",
   "RoutesNumb": 22,
   "Lat": "47.618598937800002",
   "Long": "-52.751899719000001"
 },
 {
   "AirportID": "190.000000000000000",
   "Name": "Kapuskasing Airport",
   "City": "Kapuskasing",
   "Country": "Canada",
   "IATA": "YYU",
   "ICAO": "CYYU",
   "Altitude": "226.466399999999993",
   "Timezone": "-5.000000000000000",
   "Tz_databas": "America/Toronto",
   "RoutesNumb": 2,
   "Lat": "49.413898467999999",
   "Long": "-82.467498779200000"
 },
 {
   "AirportID": "192.000000000000000",
   "Name": "Mont Joli Airport",
   "City": "Mont Joli",
   "Country": "Canada",
   "IATA": "YYY",
   "ICAO": "CYYY",
   "Altitude": "52.425600000000003",
   "Timezone": "-5.000000000000000",
   "Tz_databas": "America/Toronto",
   "RoutesNumb": 8,
   "Lat": "48.608600616700002",
   "Long": "-68.208099365099997"
 },
 {
   "AirportID": "193.000000000000000",
   "Name": "Lester B. Pearson International Airport",
   "City": "Toronto",
   "Country": "Canada",
   "IATA": "YYZ",
   "ICAO": "CYYZ",
   "Altitude": "173.431199999999990",
   "Timezone": "-5.000000000000000",
   "Tz_databas": "America/Toronto",
   "RoutesNumb": 319,
   "Lat": "43.677200317599997",
   "Long": "-79.630599975199999"
 },
 {
   "AirportID": "196.000000000000000",
   "Name": "Yellowknife Airport",
   "City": "Yellowknife",
   "Country": "Canada",
   "IATA": "YZF",
   "ICAO": "CYZF",
   "Altitude": "205.740000000000009",
   "Timezone": "-7.000000000000000",
   "Tz_databas": "America/Edmonton",
   "RoutesNumb": 30,
   "Lat": "62.462799072499998",
   "Long": "-114.440002441999994"
 },
 {
   "AirportID": "198.000000000000000",
   "Name": "Sandspit Airport",
   "City": "Sandspit",
   "Country": "Canada",
   "IATA": "YZP",
   "ICAO": "CYZP",
   "Altitude": "6.400800000000000",
   "Timezone": "-8.000000000000000",
   "Tz_databas": "America/Vancouver",
   "RoutesNumb": 1,
   "Lat": "53.254299163900001",
   "Long": "-131.813995360999996"
 },
 {
   "AirportID": "199.000000000000000",
   "Name": "Chris Hadfield Airport",
   "City": "Sarnia",
   "Country": "Canada",
   "IATA": "YZR",
   "ICAO": "CYZR",
   "Altitude": "181.051199999999994",
   "Timezone": "-5.000000000000000",
   "Tz_databas": "America/Toronto",
   "RoutesNumb": 1,
   "Lat": "42.999401092799999",
   "Long": "-82.308898925999998"
 },
 {
   "AirportID": "200.000000000000000",
   "Name": "Port Hardy Airport",
   "City": "Port Hardy",
   "Country": "Canada",
   "IATA": "YZT",
   "ICAO": "CYZT",
   "Altitude": "21.640799999999999",
   "Timezone": "-8.000000000000000",
   "Tz_databas": "America/Vancouver",
   "RoutesNumb": 2,
   "Lat": "50.680599212499999",
   "Long": "-127.366996764999996"
 },
 {
   "AirportID": "202.000000000000000",
   "Name": "Sept-Îles Airport",
   "City": "Sept-iles",
   "Country": "Canada",
   "IATA": "YZV",
   "ICAO": "CYZV",
   "Altitude": "54.863999999999997",
   "Timezone": "-5.000000000000000",
   "Tz_databas": "America/Toronto",
   "RoutesNumb": 21,
   "Lat": "50.223300933700003",
   "Long": "-66.265602111800007"
 },
 {
   "AirportID": "206.000000000000000",
   "Name": "Fort Mcpherson Airport",
   "City": "Fort Mcpherson",
   "Country": "Canada",
   "IATA": "ZFM",
   "ICAO": "CZFM",
   "Altitude": "35.356800000000000",
   "Timezone": "-7.000000000000000",
   "Tz_databas": "America/Edmonton",
   "RoutesNumb": 1,
   "Lat": "67.407501220599997",
   "Long": "-134.860992431999989"
 },
 {
   "AirportID": "209.000000000000000",
   "Name": "Soummam Airport",
   "City": "Bejaja",
   "Country": "Algeria",
   "IATA": "BJA",
   "ICAO": "DAAE",
   "Altitude": "6.096000000000000",
   "Timezone": "1.000000000000000",
   "Tz_databas": "Africa/Algiers",
   "RoutesNumb": 4,
   "Lat": "36.712001800300001",
   "Long": "5.069920063220000"
 },
 {
   "AirportID": "210.000000000000000",
   "Name": "Houari Boumediene Airport",
   "City": "Algier",
   "Country": "Algeria",
   "IATA": "ALG",
   "ICAO": "DAAG",
   "Altitude": "24.993600000000001",
   "Timezone": "1.000000000000000",
   "Tz_databas": "Africa/Algiers",
   "RoutesNumb": 79,
   "Lat": "36.691001892099997",
   "Long": "3.215409993790000"
 },
 {
   "AirportID": "211.000000000000000",
   "Name": "Djanet Inedbirene Airport",
   "City": "Djanet",
   "Country": "Algeria",
   "IATA": "DJG",
   "ICAO": "DAAJ",
   "Altitude": "968.044800000000009",
   "Timezone": "1.000000000000000",
   "Tz_databas": "Africa/Algiers",
   "RoutesNumb": 2,
   "Lat": "24.292800999899999",
   "Long": "9.452440000410000"
 },
 {
   "AirportID": "216.000000000000000",
   "Name": "Aguenar – Hadj Bey Akhamok Airport",
   "City": "Tamanrasset",
   "Country": "Algeria",
   "IATA": "TMR",
   "ICAO": "DAAT",
   "Altitude": "1377.086399999999912",
   "Timezone": "1.000000000000000",
   "Tz_databas": "Africa/Algiers",
   "RoutesNumb": 4,
   "Lat": "22.811500548900000",
   "Long": "5.451079845730000"
 },
 {
   "AirportID": "220.000000000000000",
   "Name": "Rabah Bitat Airport",
   "City": "Annaba",
   "Country": "Algeria",
   "IATA": "AAE",
   "ICAO": "DABB",
   "Altitude": "4.876800000000000",
   "Timezone": "1.000000000000000",
   "Tz_databas": "Africa/Algiers",
   "RoutesNumb": 7,
   "Lat": "36.822200999800003",
   "Long": "7.809174000040000"
 },
 {
   "AirportID": "221.000000000000000",
   "Name": "Mohamed Boudiaf International Airport",
   "City": "Constantine",
   "Country": "Algeria",
   "IATA": "CZL",
   "ICAO": "DABC",
   "Altitude": "690.371999999999957",
   "Timezone": "1.000000000000000",
   "Tz_databas": "Africa/Algiers",
   "RoutesNumb": 11,
   "Lat": "36.276000976900001",
   "Long": "6.620389938440000"
 },
 {
   "AirportID": "222.000000000000000",
   "Name": "Cheikh Larbi Tébessi Airport",
   "City": "Tebessa",
   "Country": "Algeria",
   "IATA": "TEE",
   "ICAO": "DABS",
   "Altitude": "811.072800000000029",
   "Timezone": "1.000000000000000",
   "Tz_databas": "Africa/Algiers",
   "RoutesNumb": 1,
   "Lat": "35.431598663099997",
   "Long": "8.120719909500000"
 },
 {
   "AirportID": "224.000000000000000",
   "Name": "Hassi R'Mel Airport",
   "City": "Tilrempt",
   "Country": "Algeria",
   "IATA": "HRM",
   "ICAO": "DAFH",
   "Altitude": "774.192000000000007",
   "Timezone": "1.000000000000000",
   "Tz_databas": "Africa/Algiers",
   "RoutesNumb": 2,
   "Lat": "32.930400848500000",
   "Long": "3.311539888240000"
 },
 {
   "AirportID": "225.000000000000000",
   "Name": "Bou Chekif Airport",
   "City": "Tiaret",
   "Country": "Algeria",
   "IATA": "TID",
   "ICAO": "DAOB",
   "Altitude": "989.076000000000022",
   "Timezone": "1.000000000000000",
   "Tz_databas": "Africa/Algiers",
   "RoutesNumb": 1,
   "Lat": "35.341098785100002",
   "Long": "1.463150024670000"
 },
 {
   "AirportID": "230.000000000000000",
   "Name": "Zenata – Messali El Hadj Airport",
   "City": "Tlemcen",
   "Country": "Algeria",
   "IATA": "TLM",
   "ICAO": "DAON",
   "Altitude": "248.107200000000006",
   "Timezone": "1.000000000000000",
   "Tz_databas": "Africa/Algiers",
   "RoutesNumb": 4,
   "Lat": "35.016700744500000",
   "Long": "-1.450000048060000"
 },
 {
   "AirportID": "231.000000000000000",
   "Name": "Es Senia Airport",
   "City": "Oran",
   "Country": "Algeria",
   "IATA": "ORN",
   "ICAO": "DAOO",
   "Altitude": "89.915999999999997",
   "Timezone": "1.000000000000000",
   "Tz_databas": "Africa/Algiers",
   "RoutesNumb": 27,
   "Lat": "35.623901367099997",
   "Long": "-0.621182977996000"
 },
 {
   "AirportID": "233.000000000000000",
   "Name": "Ghriss Airport",
   "City": "Ghriss",
   "Country": "Algeria",
   "IATA": "MUW",
   "ICAO": "DAOV",
   "Altitude": "513.892799999999966",
   "Timezone": "1.000000000000000",
   "Tz_databas": "Africa/Algiers",
   "RoutesNumb": 2,
   "Lat": "35.207698821900003",
   "Long": "0.147141992685000"
 },
 {
   "AirportID": "234.000000000000000",
   "Name": "Touat Cheikh Sidi Mohamed Belkebir Airport",
   "City": "Adrar",
   "Country": "Algeria",
   "IATA": "AZR",
   "ICAO": "DAUA",
   "Altitude": "280.111199999999997",
   "Timezone": "1.000000000000000",
   "Tz_databas": "Africa/Algiers",
   "RoutesNumb": 6,
   "Lat": "27.837600708400000",
   "Long": "-0.186414003084000"
 },
 {
   "AirportID": "235.000000000000000",
   "Name": "Biskra Airport",
   "City": "Biskra",
   "Country": "Algeria",
   "IATA": "BSK",
   "ICAO": "DAUB",
   "Altitude": "88.087199999999996",
   "Timezone": "1.000000000000000",
   "Tz_databas": "Africa/Algiers",
   "RoutesNumb": 3,
   "Lat": "34.793300628899999",
   "Long": "5.738230228580000"
 },
 {
   "AirportID": "236.000000000000000",
   "Name": "El Golea Airport",
   "City": "El Golea",
   "Country": "Algeria",
   "IATA": "ELG",
   "ICAO": "DAUE",
   "Altitude": "398.068800000000010",
   "Timezone": "1.000000000000000",
   "Tz_databas": "Africa/Algiers",
   "RoutesNumb": 2,
   "Lat": "30.571300506899998",
   "Long": "2.859590053200000"
 },
 {
   "AirportID": "237.000000000000000",
   "Name": "Noumérat - Moufdi Zakaria Airport",
   "City": "Ghardaia",
   "Country": "Algeria",
   "IATA": "GHA",
   "ICAO": "DAUG",
   "Altitude": "460.857599999999991",
   "Timezone": "1.000000000000000",
   "Tz_databas": "Africa/Algiers",
   "RoutesNumb": 4,
   "Lat": "32.384101867399998",
   "Long": "3.794110060060000"
 },
 {
   "AirportID": "238.000000000000000",
   "Name": "Oued Irara Airport",
   "City": "Hassi Messaoud",
   "Country": "Algeria",
   "IATA": "HME",
   "ICAO": "DAUH",
   "Altitude": "141.122399999999999",
   "Timezone": "1.000000000000000",
   "Tz_databas": "Africa/Algiers",
   "RoutesNumb": 5,
   "Lat": "31.673000335699999",
   "Long": "6.140439987000000"
 },
 {
   "AirportID": "239.000000000000000",
   "Name": "In Salah Airport",
   "City": "In Salah",
   "Country": "Algeria",
   "IATA": "INZ",
   "ICAO": "DAUI",
   "Altitude": "273.100799999999992",
   "Timezone": "1.000000000000000",
   "Tz_databas": "Africa/Algiers",
   "RoutesNumb": 2,
   "Lat": "27.250999450599998",
   "Long": "2.512020110830000"
 },
 {
   "AirportID": "240.000000000000000",
   "Name": "Touggourt Sidi Madhi Airport",
   "City": "Touggourt",
   "Country": "Algeria",
   "IATA": "TGR",
   "ICAO": "DAUK",
   "Altitude": "85.039199999999994",
   "Timezone": "1.000000000000000",
   "Tz_databas": "Africa/Algiers",
   "RoutesNumb": 1,
   "Lat": "33.067798614700003",
   "Long": "6.088669777140000"
 },
 {
   "AirportID": "243.000000000000000",
   "Name": "Ain el Beida Airport",
   "City": "Ouargla",
   "Country": "Algeria",
   "IATA": "OGX",
   "ICAO": "DAUU",
   "Altitude": "149.961600000000004",
   "Timezone": "1.000000000000000",
   "Tz_databas": "Africa/Algiers",
   "RoutesNumb": 5,
   "Lat": "31.917200088400001",
   "Long": "5.412779807980000"
 },
 {
   "AirportID": "244.000000000000000",
   "Name": "In Aménas Airport",
   "City": "Zarzaitine",
   "Country": "Algeria",
   "IATA": "IAM",
   "ICAO": "DAUZ",
   "Altitude": "562.965599999999995",
   "Timezone": "1.000000000000000",
   "Tz_databas": "Africa/Algiers",
   "RoutesNumb": 2,
   "Lat": "28.051499999699999",
   "Long": "9.642910000310000"
 },
 {
   "AirportID": "245.000000000000000",
   "Name": "Cadjehoun Airport",
   "City": "Cotonou",
   "Country": "Benin",
   "IATA": "COO",
   "ICAO": "DBBB",
   "Altitude": "5.791200000000000",
   "Timezone": "1.000000000000000",
   "Tz_databas": "Africa/Porto-Novo",
   "RoutesNumb": 41,
   "Lat": "6.357230186490000",
   "Long": "2.384350061330000"
 },
 {
   "AirportID": "246.000000000000000",
   "Name": "Ouagadougou Airport",
   "City": "Ouagadougou",
   "Country": "Burkina Faso",
   "IATA": "OUA",
   "ICAO": "DFFD",
   "Altitude": "316.077600000000018",
   "Timezone": "0.000000000000000",
   "Tz_databas": "Africa/Ouagadougou",
   "RoutesNumb": 33,
   "Lat": "12.353200000099999",
   "Long": "-1.512420000310000"
 },
 {
   "AirportID": "247.000000000000000",
   "Name": "Bobo Dioulasso Airport",
   "City": "Bobo-dioulasso",
   "Country": "Burkina Faso",
   "IATA": "BOY",
   "ICAO": "DFOO",
   "Altitude": "460.552799999999991",
   "Timezone": "0.000000000000000",
   "Tz_databas": "Africa/Ouagadougou",
   "RoutesNumb": 2,
   "Lat": "11.160099983200000",
   "Long": "-4.330969810090000"
 },
 {
   "AirportID": "248.000000000000000",
   "Name": "Kotoka International Airport",
   "City": "Accra",
   "Country": "Ghana",
   "IATA": "ACC",
   "ICAO": "DGAA",
   "Altitude": "62.484000000000002",
   "Timezone": "0.000000000000000",
   "Tz_databas": "Africa/Accra",
   "RoutesNumb": 54,
   "Lat": "5.605189799970000",
   "Long": "-0.166786000077000"
 },
 {
   "AirportID": "249.000000000000000",
   "Name": "Tamale Airport",
   "City": "Tamale",
   "Country": "Ghana",
   "IATA": "TML",
   "ICAO": "DGLE",
   "Altitude": "168.554399999999987",
   "Timezone": "0.000000000000000",
   "Tz_databas": "Africa/Accra",
   "RoutesNumb": 3,
   "Lat": "9.557189941040001",
   "Long": "-0.863214015939000"
 },
 {
   "AirportID": "251.000000000000000",
   "Name": "Sunyani Airport",
   "City": "Sunyani",
   "Country": "Ghana",
   "IATA": "NYI",
   "ICAO": "DGSN",
   "Altitude": "309.067200000000014",
   "Timezone": "0.000000000000000",
   "Tz_databas": "Africa/Accra",
   "RoutesNumb": 1,
   "Lat": "7.361830234700000",
   "Long": "-2.328759908550000"
 },
 {
   "AirportID": "252.000000000000000",
   "Name": "Takoradi Airport",
   "City": "Takoradi",
   "Country": "Ghana",
   "IATA": "TKD",
   "ICAO": "DGTK",
   "Altitude": "6.400800000000000",
   "Timezone": "0.000000000000000",
   "Tz_databas": "Africa/Accra",
   "RoutesNumb": 2,
   "Lat": "4.896059989920000",
   "Long": "-1.774760008260000"
 },
 {
   "AirportID": "253.000000000000000",
   "Name": "Port Bouet Airport",
   "City": "Abidjan",
   "Country": "Cote d'Ivoire",
   "IATA": "ABJ",
   "ICAO": "DIAP",
   "Altitude": "6.400800000000000",
   "Timezone": "0.000000000000000",
   "Tz_databas": "Africa/Abidjan",
   "RoutesNumb": 50,
   "Lat": "5.261390209270000",
   "Long": "-3.926290034970000"
 },
 {
   "AirportID": "260.000000000000000",
   "Name": "Nnamdi Azikiwe International Airport",
   "City": "Abuja",
   "Country": "Nigeria",
   "IATA": "ABV",
   "ICAO": "DNAA",
   "Altitude": "342.290399999999977",
   "Timezone": "1.000000000000000",
   "Tz_databas": "Africa/Lagos",
   "RoutesNumb": 28,
   "Lat": "9.006790160920000",
   "Long": "7.263169765140000"
 },
 {
   "AirportID": "262.000000000000000",
   "Name": "Benin Airport",
   "City": "Benin",
   "Country": "Nigeria",
   "IATA": "BNI",
   "ICAO": "DNBE",
   "Altitude": "78.638400000000004",
   "Timezone": "1.000000000000000",
   "Tz_databas": "Africa/Lagos",
   "RoutesNumb": 2,
   "Lat": "6.316979885270000",
   "Long": "5.599500179690000"
 },
 {
   "AirportID": "263.000000000000000",
   "Name": "Margaret Ekpo International Airport",
   "City": "Calabar",
   "Country": "Nigeria",
   "IATA": "CBQ",
   "ICAO": "DNCA",
   "Altitude": "64.007999999999996",
   "Timezone": "1.000000000000000",
   "Tz_databas": "Africa/Lagos",
   "RoutesNumb": 2,
   "Lat": "4.976019859200000",
   "Long": "8.347200393910001"
 },
 {
   "AirportID": "264.000000000000000",
   "Name": "Akanu Ibiam International Airport",
   "City": "Enugu",
   "Country": "Nigeria",
   "IATA": "ENU",
   "ICAO": "DNEN",
   "Altitude": "142.036799999999999",
   "Timezone": "1.000000000000000",
   "Tz_databas": "Africa/Lagos",
   "RoutesNumb": 3,
   "Lat": "6.474269866590000",
   "Long": "7.561960220100000"
 },
 {
   "AirportID": "266.000000000000000",
   "Name": "Ibadan Airport",
   "City": "Ibadan",
   "Country": "Nigeria",
   "IATA": "IBA",
   "ICAO": "DNIB",
   "Altitude": "220.979999999999990",
   "Timezone": "1.000000000000000",
   "Tz_databas": "Africa/Lagos",
   "RoutesNumb": 1,
   "Lat": "7.362460136300000",
   "Long": "3.978329896630000"
 },
 {
   "AirportID": "267.000000000000000",
   "Name": "Ilorin International Airport",
   "City": "Ilorin",
   "Country": "Nigeria",
   "IATA": "ILR",
   "ICAO": "DNIL",
   "Altitude": "343.204799999999977",
   "Timezone": "1.000000000000000",
   "Tz_databas": "Africa/Lagos",
   "RoutesNumb": 1,
   "Lat": "8.440210342500000",
   "Long": "4.493919849390000"
 },
 {
   "AirportID": "268.000000000000000",
   "Name": "Yakubu Gowon Airport",
   "City": "Jos",
   "Country": "Nigeria",
   "IATA": "JOS",
   "ICAO": "DNJO",
   "Altitude": "1289.913600000000088",
   "Timezone": "1.000000000000000",
   "Tz_databas": "Africa/Lagos",
   "RoutesNumb": 1,
   "Lat": "9.639829635250001",
   "Long": "8.869050025869999"
 },
 {
   "AirportID": "269.000000000000000",
   "Name": "Kaduna Airport",
   "City": "Kaduna",
   "Country": "Nigeria",
   "IATA": "KAD",
   "ICAO": "DNKA",
   "Altitude": "631.850400000000036",
   "Timezone": "1.000000000000000",
   "Tz_databas": "Africa/Lagos",
   "RoutesNumb": 1,
   "Lat": "10.696000099300001",
   "Long": "7.320109844140000"
 },
 {
   "AirportID": "270.000000000000000",
   "Name": "Mallam Aminu International Airport",
   "City": "Kano",
   "Country": "Nigeria",
   "IATA": "KAN",
   "ICAO": "DNKN",
   "Altitude": "476.097600000000000",
   "Timezone": "1.000000000000000",
   "Tz_databas": "Africa/Lagos",
   "RoutesNumb": 7,
   "Lat": "12.047600000299999",
   "Long": "8.524619999940001"
 },
 {
   "AirportID": "273.000000000000000",
   "Name": "Murtala Muhammed International Airport",
   "City": "Lagos",
   "Country": "Nigeria",
   "IATA": "LOS",
   "ICAO": "DNMM",
   "Altitude": "41.148000000000003",
   "Timezone": "1.000000000000000",
   "Tz_databas": "Africa/Lagos",
   "RoutesNumb": 59,
   "Lat": "6.577370166680000",
   "Long": "3.321160077770000"
 },
 {
   "AirportID": "275.000000000000000",
   "Name": "Port Harcourt International Airport",
   "City": "Port Hartcourt",
   "Country": "Nigeria",
   "IATA": "PHC",
   "ICAO": "DNPO",
   "Altitude": "26.517600000000002",
   "Timezone": "1.000000000000000",
   "Tz_databas": "Africa/Lagos",
   "RoutesNumb": 8,
   "Lat": "5.015490054830000",
   "Long": "6.949590206410000"
 },
 {
   "AirportID": "276.000000000000000",
   "Name": "Sadiq Abubakar III International Airport",
   "City": "Sokoto",
   "Country": "Nigeria",
   "IATA": "SKO",
   "ICAO": "DNSO",
   "Altitude": "307.848000000000013",
   "Timezone": "1.000000000000000",
   "Tz_databas": "Africa/Lagos",
   "RoutesNumb": 1,
   "Lat": "12.916299819700001",
   "Long": "5.207190037160000"
 },
 {
   "AirportID": "277.000000000000000",
   "Name": "Yola Airport",
   "City": "Yola",
   "Country": "Nigeria",
   "IATA": "YOL",
   "ICAO": "DNYO",
   "Altitude": "182.575199999999995",
   "Timezone": "1.000000000000000",
   "Tz_databas": "Africa/Lagos",
   "RoutesNumb": 1,
   "Lat": "9.257550239600000",
   "Long": "12.430399894400001"
 },
 {
   "AirportID": "280.000000000000000",
   "Name": "Diori Hamani International Airport",
   "City": "Niamey",
   "Country": "Niger",
   "IATA": "NIM",
   "ICAO": "DRRN",
   "Altitude": "223.113599999999991",
   "Timezone": "1.000000000000000",
   "Tz_databas": "Africa/Niamey",
   "RoutesNumb": 17,
   "Lat": "13.481500000400001",
   "Long": "2.183610000080000"
 },
 {
   "AirportID": "286.000000000000000",
   "Name": "Monastir Habib Bourguiba International Airport",
   "City": "Monastir",
   "Country": "Tunisia",
   "IATA": "MIR",
   "ICAO": "DTMB",
   "Altitude": "2.743200000000000",
   "Timezone": "1.000000000000000",
   "Tz_databas": "Africa/Tunis",
   "RoutesNumb": 15,
   "Lat": "35.758098602600001",
   "Long": "10.754699706800000"
 },
 {
   "AirportID": "287.000000000000000",
   "Name": "Tunis Carthage International Airport",
   "City": "Tunis",
   "Country": "Tunisia",
   "IATA": "TUN",
   "ICAO": "DTTA",
   "Altitude": "6.705600000000000",
   "Timezone": "1.000000000000000",
   "Tz_databas": "Africa/Tunis",
   "RoutesNumb": 87,
   "Lat": "36.851001739399997",
   "Long": "10.227199554100000"
 },
 {
   "AirportID": "290.000000000000000",
   "Name": "Gafsa Ksar International Airport",
   "City": "Gafsa",
   "Country": "Tunisia",
   "IATA": "GAF",
   "ICAO": "DTTF",
   "Altitude": "323.088000000000022",
   "Timezone": "1.000000000000000",
   "Tz_databas": "Africa/Tunis",
   "RoutesNumb": 2,
   "Lat": "34.422000884900001",
   "Long": "8.822500228859999"
 },
 {
   "AirportID": "291.000000000000000",
   "Name": "Gabès Matmata International Airport",
   "City": "Gabes",
   "Country": "Tunisia",
   "IATA": "GAE",
   "ICAO": "DTTG",
   "Altitude": "7.924800000000000",
   "Timezone": "1.000000000000000",
   "Tz_databas": "Africa/Tunis",
   "RoutesNumb": 2,
   "Lat": "33.876899719000001",
   "Long": "10.103300094900000"
 },
 {
   "AirportID": "293.000000000000000",
   "Name": "Djerba Zarzis International Airport",
   "City": "Djerba",
   "Country": "Tunisia",
   "IATA": "DJE",
   "ICAO": "DTTJ",
   "Altitude": "5.791200000000000",
   "Timezone": "1.000000000000000",
   "Tz_databas": "Africa/Tunis",
   "RoutesNumb": 35,
   "Lat": "33.874999999700002",
   "Long": "10.775500297900001"
 },
 {
   "AirportID": "295.000000000000000",
   "Name": "Sfax Thyna International Airport",
   "City": "Sfax",
   "Country": "Tunisia",
   "IATA": "SFA",
   "ICAO": "DTTX",
   "Altitude": "25.908000000000001",
   "Timezone": "1.000000000000000",
   "Tz_databas": "Africa/Tunis",
   "RoutesNumb": 10,
   "Lat": "34.717998504500002",
   "Long": "10.690999984999999"
 },
 {
   "AirportID": "296.000000000000000",
   "Name": "Tozeur Nefta International Airport",
   "City": "Tozeur",
   "Country": "Tunisia",
   "IATA": "TOE",
   "ICAO": "DTTZ",
   "Altitude": "87.477599999999995",
   "Timezone": "1.000000000000000",
   "Tz_databas": "Africa/Tunis",
   "RoutesNumb": 2,
   "Lat": "33.939701080600003",
   "Long": "8.110560417280000"
 },
 {
   "AirportID": "298.000000000000000",
   "Name": "Lomé-Tokoin Airport",
   "City": "Lome",
   "Country": "Togo",
   "IATA": "LFW",
   "ICAO": "DXXX",
   "Altitude": "21.945599999999999",
   "Timezone": "0.000000000000000",
   "Tz_databas": "Africa/Lome",
   "RoutesNumb": 20,
   "Lat": "6.165609836270000",
   "Long": "1.254510044960000"
 },
 {
   "AirportID": "299.000000000000000",
   "Name": "Antwerp International Airport (Deurne)",
   "City": "Antwerp",
   "Country": "Belgium",
   "IATA": "ANR",
   "ICAO": "EBAW",
   "Altitude": "11.887200000000000",
   "Timezone": "1.000000000000000",
   "Tz_databas": "Europe/Brussels",
   "RoutesNumb": 2,
   "Lat": "51.189399719299999",
   "Long": "4.460279941650000"
 },
 {
   "AirportID": "302.000000000000000",
   "Name": "Brussels Airport",
   "City": "Brussels",
   "Country": "Belgium",
   "IATA": "BRU",
   "ICAO": "EBBR",
   "Altitude": "56.083199999999998",
   "Timezone": "1.000000000000000",
   "Tz_databas": "Europe/Brussels",
   "RoutesNumb": 316,
   "Lat": "50.901401519799997",
   "Long": "4.484439850040000"
 },
 {
   "AirportID": "304.000000000000000",
   "Name": "Brussels South Charleroi Airport",
   "City": "Charleroi",
   "Country": "Belgium",
   "IATA": "CRL",
   "ICAO": "EBCI",
   "Altitude": "187.147199999999998",
   "Timezone": "1.000000000000000",
   "Tz_databas": "Europe/Brussels",
   "RoutesNumb": 84,
   "Lat": "50.459202000200001",
   "Long": "4.453820000140000"
 },
 {
   "AirportID": "309.000000000000000",
   "Name": "Liège Airport",
   "City": "Liege",
   "Country": "Belgium",
   "IATA": "LGG",
   "ICAO": "EBLG",
   "Altitude": "200.863200000000006",
   "Timezone": "1.000000000000000",
   "Tz_databas": "Europe/Brussels",
   "RoutesNumb": 9,
   "Lat": "50.637401580700001",
   "Long": "5.443220138560000"
 },
 {
   "AirportID": "310.000000000000000",
   "Name": "Ostend-Bruges International Airport",
   "City": "Ostend",
   "Country": "Belgium",
   "IATA": "OST",
   "ICAO": "EBOS",
   "Altitude": "3.962400000000000",
   "Timezone": "1.000000000000000",
   "Tz_databas": "Europe/Brussels",
   "RoutesNumb": 1,
   "Lat": "51.198898315400001",
   "Long": "2.862220049060000"
 },
 {
   "AirportID": "337.000000000000000",
   "Name": "Berlin-Schönefeld Airport",
   "City": "Berlin",
   "Country": "Germany",
   "IATA": "SXF",
   "ICAO": "EDDB",
   "Altitude": "47.853600000000000",
   "Timezone": "1.000000000000000",
   "Tz_databas": "Europe/Berlin",
   "RoutesNumb": 83,
   "Lat": "52.380001000100002",
   "Long": "13.522500000400001"
 },
 {
   "AirportID": "338.000000000000000",
   "Name": "Dresden Airport",
   "City": "Dresden",
   "Country": "Germany",
   "IATA": "DRS",
   "ICAO": "EDDC",
   "Altitude": "230.123999999999995",
   "Timezone": "1.000000000000000",
   "Tz_databas": "Europe/Berlin",
   "RoutesNumb": 22,
   "Lat": "51.132801055800002",
   "Long": "13.767200470300001"
 },
 {
   "AirportID": "339.000000000000000",
   "Name": "Erfurt Airport",
   "City": "Erfurt",
   "Country": "Germany",
   "IATA": "ERF",
   "ICAO": "EDDE",
   "Altitude": "315.772800000000018",
   "Timezone": "1.000000000000000",
   "Tz_databas": "Europe/Berlin",
   "RoutesNumb": 6,
   "Lat": "50.979801177900001",
   "Long": "10.958100319200000"
 },
 {
   "AirportID": "340.000000000000000",
   "Name": "Frankfurt am Main Airport",
   "City": "Frankfurt",
   "Country": "Germany",
   "IATA": "FRA",
   "ICAO": "EDDF",
   "Altitude": "110.947199999999995",
   "Timezone": "1.000000000000000",
   "Tz_databas": "Europe/Berlin",
   "RoutesNumb": 496,
   "Lat": "50.033333000200003",
   "Long": "8.570555999680000"
 },
 {
   "AirportID": "341.000000000000000",
   "Name": "Münster Osnabrück Airport",
   "City": "Munster",
   "Country": "Germany",
   "IATA": "FMO",
   "ICAO": "EDDG",
   "Altitude": "48.768000000000001",
   "Timezone": "1.000000000000000",
   "Tz_databas": "Europe/Berlin",
   "RoutesNumb": 11,
   "Lat": "52.134601592999999",
   "Long": "7.684830188350000"
 },
 {
   "AirportID": "342.000000000000000",
   "Name": "Hamburg Airport",
   "City": "Hamburg",
   "Country": "Germany",
   "IATA": "HAM",
   "ICAO": "EDDH",
   "Altitude": "16.154399999999999",
   "Timezone": "1.000000000000000",
   "Tz_databas": "Europe/Berlin",
   "RoutesNumb": 161,
   "Lat": "53.630401611099998",
   "Long": "9.988229751830000"
 },
 {
   "AirportID": "344.000000000000000",
   "Name": "Cologne Bonn Airport",
   "City": "Cologne",
   "Country": "Germany",
   "IATA": "CGN",
   "ICAO": "EDDK",
   "Altitude": "92.049599999999998",
   "Timezone": "1.000000000000000",
   "Tz_databas": "Europe/Berlin",
   "RoutesNumb": 134,
   "Lat": "50.865898132200002",
   "Long": "7.142739773010000"
 },
 {
   "AirportID": "345.000000000000000",
   "Name": "Düsseldorf Airport",
   "City": "Duesseldorf",
   "Country": "Germany",
   "IATA": "DUS",
   "ICAO": "EDDL",
   "Altitude": "44.805599999999998",
   "Timezone": "1.000000000000000",
   "Tz_databas": "Europe/Berlin",
   "RoutesNumb": 284,
   "Lat": "51.289500999900000",
   "Long": "6.766779999910000"
 },
 {
   "AirportID": "346.000000000000000",
   "Name": "Munich Airport",
   "City": "Munich",
   "Country": "Germany",
   "IATA": "MUC",
   "ICAO": "EDDM",
   "Altitude": "453.237599999999986",
   "Timezone": "1.000000000000000",
   "Tz_databas": "Europe/Berlin",
   "RoutesNumb": 367,
   "Lat": "48.353801999900000",
   "Long": "11.786099999699999"
 },
 {
   "AirportID": "347.000000000000000",
   "Name": "Nuremberg Airport",
   "City": "Nuernberg",
   "Country": "Germany",
   "IATA": "NUE",
   "ICAO": "EDDN",
   "Altitude": "318.820800000000020",
   "Timezone": "1.000000000000000",
   "Tz_databas": "Europe/Berlin",
   "RoutesNumb": 48,
   "Lat": "49.498699000099997",
   "Long": "11.078056000000000"
 },
 {
   "AirportID": "348.000000000000000",
   "Name": "Leipzig/Halle Airport",
   "City": "Leipzig",
   "Country": "Germany",
   "IATA": "LEJ",
   "ICAO": "EDDP",
   "Altitude": "141.731999999999999",
   "Timezone": "1.000000000000000",
   "Tz_databas": "Europe/Berlin",
   "RoutesNumb": 40,
   "Lat": "51.423888999699997",
   "Long": "12.236388999700001"
 },
 {
   "AirportID": "349.000000000000000",
   "Name": "Saarbrücken Airport",
   "City": "Saarbruecken",
   "Country": "Germany",
   "IATA": "SCN",
   "ICAO": "EDDR",
   "Altitude": "322.478400000000022",
   "Timezone": "1.000000000000000",
   "Tz_databas": "Europe/Berlin",
   "RoutesNumb": 9,
   "Lat": "49.214599609700002",
   "Long": "7.109509945300000"
 },
 {
   "AirportID": "350.000000000000000",
   "Name": "Stuttgart Airport",
   "City": "Stuttgart",
   "Country": "Germany",
   "IATA": "STR",
   "ICAO": "EDDS",
   "Altitude": "388.924800000000005",
   "Timezone": "1.000000000000000",
   "Tz_databas": "Europe/Berlin",
   "RoutesNumb": 137,
   "Lat": "48.689899444300003",
   "Long": "9.221960068130000"
 },
 {
   "AirportID": "351.000000000000000",
   "Name": "Berlin-Tegel Airport",
   "City": "Berlin",
   "Country": "Germany",
   "IATA": "TXL",
   "ICAO": "EDDT",
   "Altitude": "37.185600000000001",
   "Timezone": "1.000000000000000",
   "Tz_databas": "Europe/Berlin",
   "RoutesNumb": 208,
   "Lat": "52.559700000100001",
   "Long": "13.287699999899999"
 },
 {
   "AirportID": "352.000000000000000",
   "Name": "Hannover Airport",
   "City": "Hannover",
   "Country": "Germany",
   "IATA": "HAJ",
   "ICAO": "EDDV",
   "Altitude": "55.778399999999998",
   "Timezone": "1.000000000000000",
   "Tz_databas": "Europe/Berlin",
   "RoutesNumb": 76,
   "Lat": "52.461101531899999",
   "Long": "9.685079574270000"
 },
 {
   "AirportID": "353.000000000000000",
   "Name": "Bremen Airport",
   "City": "Bremen",
   "Country": "Germany",
   "IATA": "BRE",
   "ICAO": "EDDW",
   "Altitude": "4.267200000000000",
   "Timezone": "1.000000000000000",
   "Tz_databas": "Europe/Berlin",
   "RoutesNumb": 50,
   "Lat": "53.047500610500002",
   "Long": "8.786669730790001"
 },
 {
   "AirportID": "355.000000000000000",
   "Name": "Frankfurt-Hahn Airport",
   "City": "Hahn",
   "Country": "Germany",
   "IATA": "HHN",
   "ICAO": "EDFH",
   "Altitude": "502.615200000000016",
   "Timezone": "1.000000000000000",
   "Tz_databas": "Europe/Berlin",
   "RoutesNumb": 47,
   "Lat": "49.948700000099997",
   "Long": "7.263890000190000"
 },
 {
   "AirportID": "356.000000000000000",
   "Name": "Mannheim-City Airport",
   "City": "Mannheim",
   "Country": "Germany",
   "IATA": "MHG",
   "ICAO": "EDFM",
   "Altitude": "93.878399999999999",
   "Timezone": "1.000000000000000",
   "Tz_databas": "Europe/Berlin",
   "RoutesNumb": 1,
   "Lat": "49.473056999699999",
   "Long": "8.514167000280001"
 },
 {
   "AirportID": "362.000000000000000",
   "Name": "Hamburg-Finkenwerder Airport",
   "City": "Hamburg",
   "Country": "Germany",
   "IATA": "XFW",
   "ICAO": "EDHI",
   "Altitude": "7.010400000000000",
   "Timezone": "1.000000000000000",
   "Tz_databas": "Europe/Berlin",
   "RoutesNumb": 1,
   "Lat": "53.535278320200000",
   "Long": "9.835556030639999"
 },
 {
   "AirportID": "364.000000000000000",
   "Name": "Lübeck Blankensee Airport",
   "City": "Luebeck",
   "Country": "Germany",
   "IATA": "LBC",
   "ICAO": "EDHL",
   "Altitude": "16.154399999999999",
   "Timezone": "1.000000000000000",
   "Tz_databas": "Europe/Berlin",
   "RoutesNumb": 4,
   "Lat": "53.805400848500000",
   "Long": "10.719200134599999"
 },
 {
   "AirportID": "371.000000000000000",
   "Name": "Paderborn Lippstadt Airport",
   "City": "Paderborn",
   "Country": "Germany",
   "IATA": "PAD",
   "ICAO": "EDLP",
   "Altitude": "213.055200000000013",
   "Timezone": "1.000000000000000",
   "Tz_databas": "Europe/Berlin",
   "RoutesNumb": 11,
   "Lat": "51.614101410200000",
   "Long": "8.616319656740000"
 },
 {
   "AirportID": "373.000000000000000",
   "Name": "Dortmund Airport",
   "City": "Dortmund",
   "Country": "Germany",
   "IATA": "DTM",
   "ICAO": "EDLW",
   "Altitude": "129.539999999999992",
   "Timezone": "1.000000000000000",
   "Tz_databas": "Europe/Berlin",
   "RoutesNumb": 33,
   "Lat": "51.518299102800000",
   "Long": "7.612239837440000"
 },
 {
   "AirportID": "374.000000000000000",
   "Name": "Augsburg Airport",
   "City": "Augsburg",
   "Country": "Germany",
   "IATA": "AGB",
   "ICAO": "EDMA",
   "Altitude": "462.076799999999992",
   "Timezone": "1.000000000000000",
   "Tz_databas": "Europe/Berlin",
   "RoutesNumb": 1,
   "Lat": "48.425277999800002",
   "Long": "10.931667000299999"
 },
 {
   "AirportID": "382.000000000000000",
   "Name": "Friedrichshafen Airport",
   "City": "Friedrichshafen",
   "Country": "Germany",
   "IATA": "FDH",
   "ICAO": "EDNY",
   "Altitude": "416.661600000000021",
   "Timezone": "1.000000000000000",
   "Tz_databas": "Europe/Berlin",
   "RoutesNumb": 13,
   "Lat": "47.671298980600000",
   "Long": "9.511489868080000"
 },
 {
   "AirportID": "393.000000000000000",
   "Name": "Zweibrücken Airport",
   "City": "Zweibruecken",
   "Country": "Germany",
   "IATA": "ZQW",
   "ICAO": "EDRZ",
   "Altitude": "345.033599999999979",
   "Timezone": "1.000000000000000",
   "Tz_databas": "Europe/Berlin",
   "RoutesNumb": 5,
   "Lat": "49.209400000300000",
   "Long": "7.400560000130000"
 },
 {
   "AirportID": "400.000000000000000",
   "Name": "Kassel-Calden Airport",
   "City": "Kassel",
   "Country": "Germany",
   "IATA": "KSF",
   "ICAO": "EDVK",
   "Altitude": "249.936000000000007",
   "Timezone": "1.000000000000000",
   "Tz_databas": "Europe/Berlin",
   "RoutesNumb": 2,
   "Lat": "51.417272999900000",
   "Long": "9.384967000430001"
 },
 {
   "AirportID": "410.000000000000000",
   "Name": "Westerland Sylt Airport",
   "City": "Westerland",
   "Country": "Germany",
   "IATA": "GWT",
   "ICAO": "EDXW",
   "Altitude": "15.544800000000000",
   "Timezone": "1.000000000000000",
   "Tz_databas": "Europe/Berlin",
   "RoutesNumb": 8,
   "Lat": "54.913200378399999",
   "Long": "8.340470313719999"
 },
 {
   "AirportID": "413.000000000000000",
   "Name": "Kuressaare Airport",
   "City": "Kuressaare",
   "Country": "Estonia",
   "IATA": "URE",
   "ICAO": "EEKE",
   "Altitude": "4.267200000000000",
   "Timezone": "2.000000000000000",
   "Tz_databas": "Europe/Tallinn",
   "RoutesNumb": 1,
   "Lat": "58.229900359900000",
   "Long": "22.509500503900000"
 },
 {
   "AirportID": "415.000000000000000",
   "Name": "Lennart Meri Tallinn Airport",
   "City": "Tallinn-ulemiste International",
   "Country": "Estonia",
   "IATA": "TLL",
   "ICAO": "EETN",
   "Altitude": "39.928800000000003",
   "Timezone": "2.000000000000000",
   "Tz_databas": "Europe/Tallinn",
   "RoutesNumb": 38,
   "Lat": "59.413299560299997",
   "Long": "24.832799911300000"
 },
 {
   "AirportID": "416.000000000000000",
   "Name": "Tartu Airport",
   "City": "Tartu",
   "Country": "Estonia",
   "IATA": "TAY",
   "ICAO": "EETU",
   "Altitude": "66.751199999999997",
   "Timezone": "2.000000000000000",
   "Tz_databas": "Europe/Tallinn",
   "RoutesNumb": 2,
   "Lat": "58.307498931900000",
   "Long": "26.690399170199999"
 },
 {
   "AirportID": "421.000000000000000",
   "Name": "Helsinki Vantaa Airport",
   "City": "Helsinki",
   "Country": "Finland",
   "IATA": "HEL",
   "ICAO": "EFHK",
   "Altitude": "54.559199999999997",
   "Timezone": "2.000000000000000",
   "Tz_databas": "Europe/Helsinki",
   "RoutesNumb": 159,
   "Lat": "60.317199706899999",
   "Long": "24.963300705000002"
 },
 {
   "AirportID": "428.000000000000000",
   "Name": "Ivalo Airport",
   "City": "Ivalo",
   "Country": "Finland",
   "IATA": "IVL",
   "ICAO": "EFIV",
   "Altitude": "146.608800000000002",
   "Timezone": "2.000000000000000",
   "Tz_databas": "Europe/Helsinki",
   "RoutesNumb": 2,
   "Lat": "68.607299804600004",
   "Long": "27.405300140700000"
 },
 {
   "AirportID": "429.000000000000000",
   "Name": "Joensuu Airport",
   "City": "Joensuu",
   "Country": "Finland",
   "IATA": "JOE",
   "ICAO": "EFJO",
   "Altitude": "121.310400000000001",
   "Timezone": "2.000000000000000",
   "Tz_databas": "Europe/Helsinki",
   "RoutesNumb": 1,
   "Lat": "62.662899017299999",
   "Long": "29.607500076699999"
 },
 {
   "AirportID": "430.000000000000000",
   "Name": "Jyvaskyla Airport",
   "City": "Jyvaskyla",
   "Country": "Finland",
   "IATA": "JYV",
   "ICAO": "EFJY",
   "Altitude": "139.903199999999998",
   "Timezone": "2.000000000000000",
   "Tz_databas": "Europe/Helsinki",
   "RoutesNumb": 3,
   "Lat": "62.399501800400003",
   "Long": "25.678300857600000"
 },
 {
   "AirportID": "432.000000000000000",
   "Name": "Kemi-Tornio Airport",
   "City": "Kemi",
   "Country": "Finland",
   "IATA": "KEM",
   "ICAO": "EFKE",
   "Altitude": "18.592800000000000",
   "Timezone": "2.000000000000000",
   "Tz_databas": "Europe/Helsinki",
   "RoutesNumb": 2,
   "Lat": "65.778701782100001",
   "Long": "24.582099914400001"
 },
 {
   "AirportID": "433.000000000000000",
   "Name": "Kajaani Airport",
   "City": "Kajaani",
   "Country": "Finland",
   "IATA": "KAJ",
   "ICAO": "EFKI",
   "Altitude": "147.218400000000003",
   "Timezone": "2.000000000000000",
   "Tz_databas": "Europe/Helsinki",
   "RoutesNumb": 2,
   "Lat": "64.285499572800006",
   "Long": "27.692399978899999"
 },
 {
   "AirportID": "435.000000000000000",
   "Name": "Kokkola-Pietarsaari Airport",
   "City": "Kruunupyy",
   "Country": "Finland",
   "IATA": "KOK",
   "ICAO": "EFKK",
   "Altitude": "25.603200000000001",
   "Timezone": "2.000000000000000",
   "Tz_databas": "Europe/Helsinki",
   "RoutesNumb": 3,
   "Lat": "63.721199035799998",
   "Long": "23.143100738600001"
 },
 {
   "AirportID": "437.000000000000000",
   "Name": "Kuusamo Airport",
   "City": "Kuusamo",
   "Country": "Finland",
   "IATA": "KAO",
   "ICAO": "EFKS",
   "Altitude": "263.956799999999987",
   "Timezone": "2.000000000000000",
   "Tz_databas": "Europe/Helsinki",
   "RoutesNumb": 1,
   "Lat": "65.987602233900006",
   "Long": "29.239400863299998"
 },
 {
   "AirportID": "438.000000000000000",
   "Name": "Kittilä Airport",
   "City": "Kittila",
   "Country": "Finland",
   "IATA": "KTT",
   "ICAO": "EFKT",
   "Altitude": "196.291200000000003",
   "Timezone": "2.000000000000000",
   "Tz_databas": "Europe/Helsinki",
   "RoutesNumb": 2,
   "Lat": "67.700996399000005",
   "Long": "24.846799850499998"
 },
 {
   "AirportID": "439.000000000000000",
   "Name": "Kuopio Airport",
   "City": "Kuopio",
   "Country": "Finland",
   "IATA": "KUO",
   "ICAO": "EFKU",
   "Altitude": "98.450400000000002",
   "Timezone": "2.000000000000000",
   "Tz_databas": "Europe/Helsinki",
   "RoutesNumb": 1,
   "Lat": "63.007099151699997",
   "Long": "27.797800064000000"
 },
 {
   "AirportID": "441.000000000000000",
   "Name": "Lappeenranta Airport",
   "City": "Lappeenranta",
   "Country": "Finland",
   "IATA": "LPP",
   "ICAO": "EFLP",
   "Altitude": "106.375200000000007",
   "Timezone": "2.000000000000000",
   "Tz_databas": "Europe/Helsinki",
   "RoutesNumb": 3,
   "Lat": "61.044601000199997",
   "Long": "28.144743000300000"
 },
 {
   "AirportID": "442.000000000000000",
   "Name": "Mariehamn Airport",
   "City": "Mariehamn",
   "Country": "Finland",
   "IATA": "MHQ",
   "ICAO": "EFMA",
   "Altitude": "5.181600000000000",
   "Timezone": "2.000000000000000",
   "Tz_databas": "Europe/Mariehamn",
   "RoutesNumb": 4,
   "Lat": "60.122200012100002",
   "Long": "19.898199081000001"
 },
 {
   "AirportID": "446.000000000000000",
   "Name": "Oulu Airport",
   "City": "Oulu",
   "Country": "Finland",
   "IATA": "OUL",
   "ICAO": "EFOU",
   "Altitude": "14.325600000000000",
   "Timezone": "2.000000000000000",
   "Tz_databas": "Europe/Helsinki",
   "RoutesNumb": 4,
   "Lat": "64.930099487199996",
   "Long": "25.354600906700000"
 },
 {
   "AirportID": "448.000000000000000",
   "Name": "Pori Airport",
   "City": "Pori",
   "Country": "Finland",
   "IATA": "POR",
   "ICAO": "EFPO",
   "Altitude": "13.411199999999999",
   "Timezone": "2.000000000000000",
   "Tz_databas": "Europe/Helsinki",
   "RoutesNumb": 3,
   "Lat": "61.461700439600001",
   "Long": "21.799999237400002"
 },
 {
   "AirportID": "453.000000000000000",
   "Name": "Rovaniemi Airport",
   "City": "Rovaniemi",
   "Country": "Finland",
   "IATA": "RVN",
   "ICAO": "EFRO",
   "Altitude": "195.681600000000003",
   "Timezone": "2.000000000000000",
   "Tz_databas": "Europe/Helsinki",
   "RoutesNumb": 2,
   "Lat": "66.564796447899994",
   "Long": "25.830400467200000"
 },
 {
   "AirportID": "455.000000000000000",
   "Name": "Savonlinna Airport",
   "City": "Savonlinna",
   "Country": "Finland",
   "IATA": "SVL",
   "ICAO": "EFSA",
   "Altitude": "94.792800000000000",
   "Timezone": "2.000000000000000",
   "Tz_databas": "Europe/Helsinki",
   "RoutesNumb": 2,
   "Lat": "61.943099975800003",
   "Long": "28.945100784600001"
 },
 {
   "AirportID": "458.000000000000000",
   "Name": "Tampere-Pirkkala Airport",
   "City": "Tampere",
   "Country": "Finland",
   "IATA": "TMP",
   "ICAO": "EFTP",
   "Altitude": "118.872000000000000",
   "Timezone": "2.000000000000000",
   "Tz_databas": "Europe/Helsinki",
   "RoutesNumb": 12,
   "Lat": "61.414100646900003",
   "Long": "23.604400634400001"
 },
 {
   "AirportID": "460.000000000000000",
   "Name": "Turku Airport",
   "City": "Turku",
   "Country": "Finland",
   "IATA": "TKU",
   "ICAO": "EFTU",
   "Altitude": "49.072800000000001",
   "Timezone": "2.000000000000000",
   "Tz_databas": "Europe/Helsinki",
   "RoutesNumb": 8,
   "Lat": "60.514099121199997",
   "Long": "22.262800217100001"
 },
 {
   "AirportID": "462.000000000000000",
   "Name": "Vaasa Airport",
   "City": "Vaasa",
   "Country": "Finland",
   "IATA": "VAA",
   "ICAO": "EFVA",
   "Altitude": "5.791200000000000",
   "Timezone": "2.000000000000000",
   "Tz_databas": "Europe/Helsinki",
   "RoutesNumb": 5,
   "Lat": "63.050701141499999",
   "Long": "21.762199402200000"
 },
 {
   "AirportID": "465.000000000000000",
   "Name": "Belfast International Airport",
   "City": "Belfast",
   "Country": "United Kingdom",
   "IATA": "BFS",
   "ICAO": "EGAA",
   "Altitude": "81.686400000000006",
   "Timezone": "0.000000000000000",
   "Tz_databas": "Europe/London",
   "RoutesNumb": 36,
   "Lat": "54.657501220699999",
   "Long": "-6.215829849460000"
 },
 {
   "AirportID": "467.000000000000000",
   "Name": "George Best Belfast City Airport",
   "City": "Belfast",
   "Country": "United Kingdom",
   "IATA": "BHD",
   "ICAO": "EGAC",
   "Altitude": "4.572000000000000",
   "Timezone": "0.000000000000000",
   "Tz_databas": "Europe/London",
   "RoutesNumb": 21,
   "Lat": "54.618099212799997",
   "Long": "-5.872499942660000"
 },
 {
   "AirportID": "468.000000000000000",
   "Name": "City of Derry Airport",
   "City": "Londonderry",
   "Country": "United Kingdom",
   "IATA": "LDY",
   "ICAO": "EGAE",
   "Altitude": "6.705600000000000",
   "Timezone": "0.000000000000000",
   "Tz_databas": "Europe/London",
   "RoutesNumb": 5,
   "Lat": "55.042800903200003",
   "Long": "-7.161109924410000"
 },
 {
   "AirportID": "469.000000000000000",
   "Name": "Birmingham International Airport",
   "City": "Birmingham",
   "Country": "United Kingdom",
   "IATA": "BHX",
   "ICAO": "EGBB",
   "Altitude": "99.669600000000003",
   "Timezone": "0.000000000000000",
   "Tz_databas": "Europe/London",
   "RoutesNumb": 108,
   "Lat": "52.453899383600003",
   "Long": "-1.748029947080000"
 },
 {
   "AirportID": "472.000000000000000",
   "Name": "Gloucestershire Airport",
   "City": "Golouchestershire",
   "Country": "United Kingdom",
   "IATA": "GLO",
   "ICAO": "EGBJ",
   "Altitude": "30.784800000000001",
   "Timezone": "0.000000000000000",
   "Tz_databas": "Europe/London",
   "RoutesNumb": 1,
   "Lat": "51.894199371200003",
   "Long": "-2.167220115550000"
 },
 {
   "AirportID": "478.000000000000000",
   "Name": "Manchester Airport",
   "City": "Manchester",
   "Country": "United Kingdom",
   "IATA": "MAN",
   "ICAO": "EGCC",
   "Altitude": "78.333600000000004",
   "Timezone": "0.000000000000000",
   "Tz_databas": "Europe/London",
   "RoutesNumb": 291,
   "Lat": "53.353698730600001",
   "Long": "-2.274950027130000"
 },
 {
   "AirportID": "481.000000000000000",
   "Name": "Newquay Cornwall Airport",
   "City": "Newquai",
   "Country": "United Kingdom",
   "IATA": "NQY",
   "ICAO": "EGHQ",
   "Altitude": "118.872000000000000",
   "Timezone": "0.000000000000000",
   "Tz_databas": "Europe/London",
   "RoutesNumb": 6,
   "Lat": "50.440601348900003",
   "Long": "-4.995409965830000"
 },
 {
   "AirportID": "488.000000000000000",
   "Name": "Cardiff International Airport",
   "City": "Cardiff",
   "Country": "United Kingdom",
   "IATA": "CWL",
   "ICAO": "EGFF",
   "Altitude": "67.055999999999997",
   "Timezone": "0.000000000000000",
   "Tz_databas": "Europe/London",
   "RoutesNumb": 32,
   "Lat": "51.396701812899998",
   "Long": "-3.343329906090000"
 },
 {
   "AirportID": "490.000000000000000",
   "Name": "Bristol Airport",
   "City": "Bristol",
   "Country": "United Kingdom",
   "IATA": "BRS",
   "ICAO": "EGGD",
   "Altitude": "189.585599999999999",
   "Timezone": "0.000000000000000",
   "Tz_databas": "Europe/London",
   "RoutesNumb": 100,
   "Lat": "51.382701999799998",
   "Long": "-2.719089999810000"
 },
 {
   "AirportID": "491.000000000000000",
   "Name": "Liverpool John Lennon Airport",
   "City": "Liverpool",
   "Country": "United Kingdom",
   "IATA": "LPL",
   "ICAO": "EGGP",
   "Altitude": "24.384000000000000",
   "Timezone": "0.000000000000000",
   "Tz_databas": "Europe/London",
   "RoutesNumb": 58,
   "Lat": "53.333599090500002",
   "Long": "-2.849720000870000"
 },
 {
   "AirportID": "492.000000000000000",
   "Name": "London Luton Airport",
   "City": "London",
   "Country": "United Kingdom",
   "IATA": "LTN",
   "ICAO": "EGGW",
   "Altitude": "160.324800000000010",
   "Timezone": "0.000000000000000",
   "Tz_databas": "Europe/London",
   "RoutesNumb": 93,
   "Lat": "51.874698638700004",
   "Long": "-0.368333011657000"
 },
 {
   "AirportID": "494.000000000000000",
   "Name": "Bournemouth Airport",
   "City": "Bournemouth",
   "Country": "United Kingdom",
   "IATA": "BOH",
   "ICAO": "EGHH",
   "Altitude": "11.582400000000000",
   "Timezone": "0.000000000000000",
   "Tz_databas": "Europe/London",
   "RoutesNumb": 19,
   "Lat": "50.779998779499998",
   "Long": "-1.842499971370000"
 },
 {
   "AirportID": "495.000000000000000",
   "Name": "Southampton Airport",
   "City": "Southampton",
   "Country": "United Kingdom",
   "IATA": "SOU",
   "ICAO": "EGHI",
   "Altitude": "13.411199999999999",
   "Timezone": "0.000000000000000",
   "Tz_databas": "Europe/London",
   "RoutesNumb": 33,
   "Lat": "50.950298309600001",
   "Long": "-1.356799960400000"
 },
 {
   "AirportID": "497.000000000000000",
   "Name": "Alderney Airport",
   "City": "Alderney",
   "Country": "Guernsey",
   "IATA": "ACI",
   "ICAO": "EGJA",
   "Altitude": "88.391999999999996",
   "Timezone": "0.000000000000000",
   "Tz_databas": "Europe/Guernsey",
   "RoutesNumb": 2,
   "Lat": "49.706104000200000",
   "Long": "-2.214719999550000"
 },
 {
   "AirportID": "498.000000000000000",
   "Name": "Guernsey Airport",
   "City": "Guernsey",
   "Country": "Guernsey",
   "IATA": "GCI",
   "ICAO": "EGJB",
   "Altitude": "102.412800000000004",
   "Timezone": "0.000000000000000",
   "Tz_databas": "Europe/Guernsey",
   "RoutesNumb": 18,
   "Lat": "49.435001373399999",
   "Long": "-2.601969957250000"
 },
 {
   "AirportID": "499.000000000000000",
   "Name": "Jersey Airport",
   "City": "Jersey",
   "Country": "Jersey",
   "IATA": "JER",
   "ICAO": "EGJJ",
   "Altitude": "84.429599999999994",
   "Timezone": "0.000000000000000",
   "Tz_databas": "Europe/Jersey",
   "RoutesNumb": 38,
   "Lat": "49.207901001099998",
   "Long": "-2.195509910780000"
 },
 {
   "AirportID": "502.000000000000000",
   "Name": "London Gatwick Airport",
   "City": "London",
   "Country": "United Kingdom",
   "IATA": "LGW",
   "ICAO": "EGKK",
   "Altitude": "61.569600000000001",
   "Timezone": "0.000000000000000",
   "Tz_databas": "Europe/London",
   "RoutesNumb": 332,
   "Lat": "51.148101999900000",
   "Long": "-0.190278000277000"
 },
 {
   "AirportID": "503.000000000000000",
   "Name": "London City Airport",
   "City": "London",
   "Country": "United Kingdom",
   "IATA": "LCY",
   "ICAO": "EGLC",
   "Altitude": "5.791200000000000",
   "Timezone": "0.000000000000000",
   "Tz_databas": "Europe/London",
   "RoutesNumb": 62,
   "Lat": "51.505298999899999",
   "Long": "0.055277999891600"
 },
 {
   "AirportID": "507.000000000000000",
   "Name": "London Heathrow Airport",
   "City": "London",
   "Country": "United Kingdom",
   "IATA": "LHR",
   "ICAO": "EGLL",
   "Altitude": "25.298400000000001",
   "Timezone": "0.000000000000000",
   "Tz_databas": "Europe/London",
   "RoutesNumb": 525,
   "Lat": "51.470600000200001",
   "Long": "-0.461941000031000"
 },
 {
   "AirportID": "508.000000000000000",
   "Name": "Southend Airport",
   "City": "Southend",
   "Country": "United Kingdom",
   "IATA": "SEN",
   "ICAO": "EGMC",
   "Altitude": "14.935200000000000",
   "Timezone": "0.000000000000000",
   "Tz_databas": "Europe/London",
   "RoutesNumb": 14,
   "Lat": "51.571399688800000",
   "Long": "0.695555985284000"
 },
 {
   "AirportID": "514.000000000000000",
   "Name": "Blackpool International Airport",
   "City": "Blackpool",
   "Country": "United Kingdom",
   "IATA": "BLK",
   "ICAO": "EGNH",
   "Altitude": "10.363200000000001",
   "Timezone": "0.000000000000000",
   "Tz_databas": "Europe/London",
   "RoutesNumb": 9,
   "Lat": "53.771701812600000",
   "Long": "-3.028609990910000"
 },
 {
   "AirportID": "515.000000000000000",
   "Name": "Humberside Airport",
   "City": "Humberside",
   "Country": "United Kingdom",
   "IATA": "HUY",
   "ICAO": "EGNJ",
   "Altitude": "36.880800000000001",
   "Timezone": "0.000000000000000",
   "Tz_databas": "Europe/London",
   "RoutesNumb": 5,
   "Lat": "53.574401855399998",
   "Long": "-0.350832998981000"
 },
 {
   "AirportID": "517.000000000000000",
   "Name": "Leeds Bradford Airport",
   "City": "Leeds",
   "Country": "United Kingdom",
   "IATA": "LBA",
   "ICAO": "EGNM",
   "Altitude": "207.568800000000010",
   "Timezone": "0.000000000000000",
   "Tz_databas": "Europe/London",
   "RoutesNumb": 69,
   "Lat": "53.865898132399998",
   "Long": "-1.660570025810000"
 },
 {
   "AirportID": "519.000000000000000",
   "Name": "Hawarden Airport",
   "City": "Hawarden",
   "Country": "United Kingdom",
   "IATA": "CEG",
   "ICAO": "EGNR",
   "Altitude": "13.715999999999999",
   "Timezone": "0.000000000000000",
   "Tz_databas": "Europe/London",
   "RoutesNumb": 2,
   "Lat": "53.178100585999999",
   "Long": "-2.977780103360000"
 },
 {
   "AirportID": "520.000000000000000",
   "Name": "Isle of Man Airport",
   "City": "Isle Of Man",
   "Country": "Isle of Man",
   "IATA": "IOM",
   "ICAO": "EGNS",
   "Altitude": "15.849600000000001",
   "Timezone": "0.000000000000000",
   "Tz_databas": "Europe/Isle_of_Man",
   "RoutesNumb": 11,
   "Lat": "54.083301544199998",
   "Long": "-4.623889922890000"
 },
 {
   "AirportID": "521.000000000000000",
   "Name": "Newcastle Airport",
   "City": "Newcastle",
   "Country": "United Kingdom",
   "IATA": "NCL",
   "ICAO": "EGNT",
   "Altitude": "81.076800000000006",
   "Timezone": "0.000000000000000",
   "Tz_databas": "Europe/London",
   "RoutesNumb": 84,
   "Lat": "55.037498474300001",
   "Long": "-1.691669940800000"
 },
 {
   "AirportID": "522.000000000000000",
   "Name": "Durham Tees Valley Airport",
   "City": "Teesside",
   "Country": "United Kingdom",
   "IATA": "MME",
   "ICAO": "EGNV",
   "Altitude": "36.576000000000001",
   "Timezone": "0.000000000000000",
   "Tz_databas": "Europe/London",
   "RoutesNumb": 3,
   "Lat": "54.509201049700003",
   "Long": "-1.429409980820000"
 },
 {
   "AirportID": "523.000000000000000",
   "Name": "East Midlands Airport",
   "City": "East Midlands",
   "Country": "United Kingdom",
   "IATA": "EMA",
   "ICAO": "EGNX",
   "Altitude": "93.268799999999999",
   "Timezone": "0.000000000000000",
   "Tz_databas": "Europe/London",
   "RoutesNumb": 88,
   "Lat": "52.831100464199999",
   "Long": "-1.328060031060000"
 },